     2              OBSERVATION DATA                        RINEX VERSION / TYPE
OBSTORNX                                05-MAY-93 09:26     PGM / RUN BY / DATE
                                                            OBSERVER / AGENCY
Z6403                                                       MARKER NAME
Z6403                                                       MARKER NUMBER
100122              SR299                                   REC # / TYPE / VERS
     0              SR299                                   ANT # / TYPE
  5323544.4435  2235420.6105 -2703249.8506                  APPROX POSITION XYZ
        1.6940        0.0000        0.0000                  ANTENNA: DELTA H/E/N
     1     1                                                WAVELENGTH FACT L1/2
     4    C1    L1    P2    L2                              # / TYPES OF OBSERV
  1993     5     1     7     2   15.000000                  TIME OF FIRST OBS
                                                            END OF HEADER
 93  5  1  7  2 15.0000000  0  3G24G18G16                           -1.000000000
  -4364110.976   -22933575.96916         0.000           0.000 0
  -2813356.561   -14784298.51416  -2813356.784   -11520111.72815
  -2957424.466   -15541368.46416         0.000           0.000 0
 93  5  1  7  2 30.0000000  0  3G24G18G16                           -1.000000000
  -4343621.448   -22825913.769 7         0.000           0.000 0
  -2792746.624   -14675990.565 6  -2792746.712   -11435715.931 5
  -2943939.187   -15470514.847 6         0.000           0.000 0
 93  5  1  7  2 45.0000000  0  3G24G18G16                           -1.000000000
  -4323329.084   -22719281.679 7         0.000           0.000 0
  -2772323.533   -14568666.498 6  -2772323.379   -11352086.794 5
  -2930648.962   -15400676.244 6         0.000           0.000 0
                            4  3
     1     1                                                WAVELENGTH FACT L1/2
     1     2     1   G24                                    WAVELENGTH FACT L1/2
  *** WAVELENGTH FACTOR CHANGED ! ***                       COMMENT
 93  5  1  7  2 60.0000000  0  3G24G18G16                           -0.000035226
  21809148.323   114607811.979 7  21809148.712    89304909.19915
  23360293.617   122759162.513 6  23360293.576    95656611.114 5
  23194871.355   121889854.660 6         0.000           0.000 0
 93  5  1  7  3 15.0000000  0  3G24G18G16                           -0.000000031
  21796028.306   114538864.823 7  21796028.488    89251184.073 5
  23347324.378   122691006.705 6  23347323.705    95603502.663 5
  23174756.551   121784147.652 6         0.000           0.000 0
 93  5  1  7  3 30.0000000  0  3G24G18G16                           -0.000000135
  21793513.100   114525648.327 7  21793513.217    89240885.461 5
  23344970.898   122678639.081 6  23344970.224    95593865.551 5
  23165250.292   121734191.922 6         0.000           0.000 0
                            4  3
     1     1                                                WAVELENGTH FACT L1/2
     1     2     2   G16   G24                              WAVELENGTH FACT L1/2
  *** WAVELENGTH FACTOR CHANGED ! ***                       COMMENT
 93  5  1  7  3 45.0000000  0  4G13G24G18G16                         0.000000001
  21351821.733   112204569.52517  21351820.114    87432254.03815
  21790933.435   114512091.092 7  21790933.115    89230321.374 5
  23342563.778   122665988.578 6  23342562.667    95584008.008 5
  23155683.704   121683919.164 6  23155683.906    94818758.71915
 93  5  1  7  3 60.0000000  0  4G13G24G18G16                        -0.000000146
  21349521.283   112192478.579 7  21349519.032    87422832.492 5
  21788434.860   114498961.994 6  21788434.478    89220090.874 5
  23340249.472   122653826.818 6  23340248.359    95574531.303 5
  23146202.633   121634096.798 5         0.000           0.000 0
 93  5  1  7  4 15.0000000  0  4G13G24G18G16                        -0.000000027
  21347120.336   112179861.516 7  21347118.079    87413000.993 5
  21785839.446   114485322.000 6  21785838.633    89209462.320 6
  23337849.478   122641214.769 6  23337848.366    95564703.734 5
  23136628.423   121583784.988 5         0.000           0.000 0
 93  5  1  7  4 30.0000000  0  4G13G24G18G16                        -0.000000022
  21344756.035   112167437.032 7  21344753.773    87403319.555 5
  21783282.879   114471887.150 6  21783282.066    89198993.605 5
  23335500.013   122628868.245 6  23335498.657    95555083.069 5
  23127098.368   121533703.207 5         0.000           0.000 0
 93  5  1  7  4 45.0000000  0  4G13G24G18G16                        -0.000000028
  21342405.895   112155085.961 7  21342403.681    87393695.320 5
  21780742.395   114458536.819 7  21780741.323    89188590.690 5
  23333178.871   122616669.561 6  23333177.323    95545577.592 5
  23117589.816   121483736.429 6         0.000           0.000 0
 93  5  1  7  5  0.0000000  0  4G13G24G18G16                        -0.000000121
  21340092.576   112142929.389 7  21340090.598    87384222.633 5
  21778241.694   114445394.543 7  21778240.420    89178349.909 5
  23330908.976   122604740.181 7  23330907.233    95536281.953 5
  23108126.429   121434005.996 6         0.000           0.000 0
 93  5  1  7  5 15.0000000  0  4G13G24G18G16                         0.000000010
  21337726.155   112130492.763 7  21337724.227    87374531.740 5
  21775689.793   114431984.217 7  21775688.528    89167900.337 5
  23328599.553   122592604.082 7  23328597.811    95526825.255 5
  23098617.642   121384036.985 6         0.000           0.000 0
 93  5  1  7  5 30.0000000  0  4G13G24G18G16                        -0.000000113
  21335451.860   112118541.265 7  21335449.928    87365218.863 5
  21773232.561   114419070.371 7  21773231.095    89157837.563 5
  23326396.278   122581024.796 6  23326394.341    95517802.416 5
  23089208.734   121334593.839 6         0.000           0.000 0
 93  5  1  7  5 45.0000000  0  4G13G24G18G16                        -0.000000012
  21333124.758   112106312.259 7  21333123.064    87355689.747 5
  21770724.752   114405891.746 6  21770723.051    89147568.540 6
  23324153.349   122569239.125 6  23324151.599    95508618.761 5
  23079755.240   121284915.393 6  23079749.659    94507846.67415
 93  5  1  7  6  0.0000000  0  4G13G24G18G16                        -0.000000081
  21330860.842   112094416.300 6  21330859.334    87346420.149 5
  21768282.922   114393059.843 6  21768281.200    89137569.567 6
  23321987.403   122557857.001 6  23321985.652    95499749.572 5
  23070372.892   121235611.822 5  23070368.471    94469428.278 5
 93  5  1  7  6 15.0000000  0  5G13G24G 2G18G16                     -0.000000146
  21328604.556   112082560.436 7  21328603.233    87337181.794 5
  21765851.420   114380282.215 6  21765849.708    89127613.014 5
  23713856.177   124617139.30915         0.000           0.000 0
  23319842.366   122546585.755 6  23319840.805    95490966.782 5
  23061005.352   121186386.063 5  23061001.617    94431070.574 5
 93  5  1  7  6 30.0000000  0  5G13G24G 2G18G16                      0.000000085
  21326268.804   112070284.979 7  21326267.285    87327616.478 5
  21763342.730   114367098.959 6  21763340.749    89117340.248 5
  23723368.662   124667129.753 6         0.000           0.000 0
  23317630.836   122534963.085 6  23317629.079    95481910.133 5
  23051565.300   121136777.255 6  23051561.615    94392414.346 5
 93  5  1  7  6 45.0000000  0  5G13G24G 2G18G16                     -0.000000002
  21324035.821   112058550.573 7  21324034.295    87318472.756 5
  21760939.582   114354470.331 7  21760937.594    89107499.729 5
  23732980.729   124717643.507 6         0.000           0.000 0
  23315535.604   122523952.568 6  23315533.842    95473330.489 5
  23042235.007   121087746.238 6  23042231.372    94354208.560 5
 93  5  1  7  6 60.0000000  0  5G13G24G 2G18G16                      0.000000089
  21321770.800   112046647.804 7  21321769.267    87309197.845 5
  21758507.357   114341688.903 7  21758505.364    89097540.154 5
  23742557.488   124767969.714 6         0.000           0.000 0
  23313422.282   122512846.988 7  23313420.519    95464676.782 5
  23032879.457   121038582.492 6         0.000           0.000 0
 93  5  1  7  7 15.0000000  0  5G13G24G 2G18G16                     -0.000000031
  21319570.169   112035083.415 7  21319568.632    87300186.611 5
  21756142.406   114329261.002 7  21756140.413    89087856.075 5
  23752194.905   124818613.681 6         0.000           0.000 0
  23311387.127   122502152.176 7  23311385.357    95456343.132 5
  23023594.880   120989791.709 6         0.000           0.000 0
 93  5  1  7  7 30.0000000  0  5G13G24G 2G18G16                      0.000000064
  21317296.050   112023131.839 7  21317294.316    87290873.668 5
  21753706.853   114316462.087 7  21753704.854    89077882.866 5
  23761754.557   124868849.994 6         0.000           0.000 0
  23309292.247   122491143.504 7  23309290.472    95447764.931 4
  23014243.235   120940648.481 6         0.000           0.000 0
 93  5  1  7  7 45.0000000  0  5G13G24G 2G18G16                     -0.000000046
  21315074.958   112011460.919 7  21315073.408    87281779.424 5
  21751327.967   114303960.957 7  21751325.974    89068141.753 5
  23771363.242   124919343.973 6         0.000           0.000 0
  23307264.759   122480488.984 6  23307262.983    95439462.704 5
  23004951.382   120891819.467 6         0.000           0.000 0
 93  5  1  7  8  0.0000000  0  5G13G24G 2G18G16                      0.000000020
  21312795.949   111999484.648 7  21312794.638    87272447.241 5
  21748893.984   114291170.290 6  21748892.219    89058174.933 5
  23780909.179   124969509.212 5         0.000           0.000 0
  23305193.517   122469603.536 6  23305191.550    95430980.529 5
  22995607.366   120842716.329 5         0.000           0.000 0
 93  5  1  7  8 15.0000000  0  5G13G24G 2G18G16                      0.000000070
  21310520.814   111987528.729 6  21310519.497    87263130.917 5
  21746466.407   114278413.283 6  21746464.640    89048234.403 5
  23790454.755   125019670.553 5         0.000           0.000 0
  23303139.781   122458811.078 6  23303137.808    95422570.801 4
  22986272.840   120793663.063 5         0.000           0.000 0
 93  5  1  7  8 30.0000000  0  5G13G24G 2G18G16                     -0.000000098
  21308312.146   111975922.100 6  21308310.825    87254086.773 5
  21744107.927   114266019.391 6  21744106.157    89038576.807 6
  23800062.535   125070158.774 5         0.000           0.000 0
  23301166.075   122448439.181 6  23301164.099    95414488.790 5
  22977010.565   120744989.480 5         0.000           0.000 0
 93  5  1  7  8 45.0000000  0  5G13G24G 2G18G16                      0.000000032
  21306015.358   111963851.402 7  21306013.841    87244681.009 5
  21741663.597   114253174.347 6  21741661.832    89028567.707 6
  23809577.617   125120160.869 5         0.000           0.000 0
  23299118.233   122437677.703 6  23299116.254    95406103.208 5
  22967666.382   120695884.469 6         0.000           0.000 0
                            4  3
     1     2                                                WAVELENGTH FACT L1/2
     1     1     2   G13   G18                              WAVELENGTH FACT L1/2
  *** WAVELENGTH FACTOR CHANGED ! ***                       COMMENT
 93  5  1  7  8 60.0000000  0  5G13G24G 2G18G16                      0.000000006
  21303764.837   111952025.832 7  21303763.504    87235466.254 5
  21739268.798   114240589.595 7  21739267.026    89018761.376 5
  23819135.503   125170387.900 5  23819129.713    97535487.39215
  23297131.288   122427236.236 6  23297129.305    95397966.983 5
  22958374.954   120647057.685 6         0.000           0.000 0
 93  5  1  7  9 15.0000000  0  5G13G24G 2G18G16                     -0.000000024
  21301518.580   111940220.674 7  21301517.050    87226267.403 5
  21736880.332   114228038.119 7  21736878.553    89008980.978 5
  23828693.951   125220616.883 5  23828688.438    97574626.775 5
  23295162.208   122416888.650 7  23295160.221    95389903.915 5
  22949093.597   120598283.822 6  22949095.842    93972809.13215
 93  5  1  7  9 30.0000000  0  5G13G24G 2G18G16                     -0.000000007
  21299264.483   111928375.310 7  21299262.946    87217037.222 5
  21734486.251   114215457.139 7  21734484.480    88999177.648 5
  23838241.905   125270790.721 6         0.000           0.000 0
  23293199.223   122406573.095 7  23293197.234    95381865.811 5
  22939810.790   120549502.346 6  22939812.554    93934797.619 5
 93  5  1  7  9 45.0000000  0  5G13G24G 2G18G16                      0.000000016
  21297018.317   111916571.628 7  21297016.772    87207839.514 5
  21732101.256   114202923.906 7  21732099.452    88989411.358 5
  23847795.158   125320992.402 6         0.000           0.000 0
  23291257.902   122396370.384 7  23291255.718    95373915.629 5
  22930542.180   120500795.468 6  22930544.215    93896844.322 5
 93  5  1  7  9 60.0000000  0  5G13G24G 2G18G16                     -0.000000102
  21294826.951   111905055.926 7  21294825.400    87198866.216 5
  21729771.525   114190681.088 7  21729769.718    88979871.486 5
  23857400.810   125371470.444 5         0.000           0.000 0
  23289384.924   122386527.819 6  23289382.492    95366246.082 5
  22921334.933   120452411.059 6  22921336.963    93859142.163 5
 93  5  1  7 10 15.0000000  0  5G13G24G 2G18G16                     -0.000000035
  21292592.976   111893316.305 7  21292591.418    87189718.431 5
  21727399.382   114178215.391 7  21727397.581    88970157.981 5
  23866961.337   125421711.355 5  23866957.590    97731323.55615
  23287482.909   122376532.662 6  23287480.471    95358457.621 4
  22912091.997   120403839.103 6  22912094.035    93821293.918 5
 93  5  1  7 10 30.0000000  0  5G13G24G 2G18G16                     -0.000000058
  21290398.741   111881785.524 7  21290397.179    87180733.388 5
  21725067.569   114165961.632 6  21725065.758    88960609.558 6
  23876558.644   125472145.542 5         0.000           0.000 0
  23285634.122   122366817.219 6  23285631.925    95350887.136 5
  22902896.213   120355514.930 6  22902897.996    93783638.679 5
 93  5  1  7 10 45.0000000  0  5G13G24G 2G18G16                      0.000000035
  21288179.274   111870122.148 7  21288177.710    87171645.035 5
  21722711.266   114153579.175 6  21722709.447    88950960.857 6
  23886127.408   125522429.736 5         0.000           0.000 0
  23283773.903   122357042.701 6  23283771.894    95343270.618 5
  22893682.605   120307098.095 6  22893684.335    93745911.277 5
 93  5  1  7 11  0.0000000  0  5G13G24G 2G18G16                      0.000000049
  21285993.328   111858634.920 7  21285991.756    87162693.919 5
  21720389.146   114141376.354 6  21720387.324    88941452.150 5
  23895726.247   125572871.976 5  23895729.757    97849110.76915
  23281961.236   122347517.075 6  23281959.222    95335848.031 5
  22884510.374   120258897.698 6  22884511.868    93708352.556 5
 93  5  1  7 11 15.0000000  0  5G13G24G 2G18G16                      0.000000003
  21283838.029   111847308.752 7  21283836.452    87153868.309 5
  21718098.117   114129335.913 7  21718096.095    88932069.952 6
  23905352.504   125623458.297 5         0.000           0.000 0
  23280192.727   122338223.496 6  23280190.705    95328606.249 5
  22875376.425   120210899.473 6  22875378.116    93670951.368 5
 93  5  1  7 11 30.0000000  0  5G13G24G 2G18G16                      0.000000102
  21281650.920   111835815.413 7  21281649.335    87144912.430 5
  21715775.202   114117129.914 7  21715773.378    88922558.813 5
  23914943.384   125673858.711 6         0.000           0.000 0
  23278405.734   122328832.783 6  23278403.708    95321288.795 5
  22866218.748   120162775.555 6  22866220.186    93633452.175 5
 93  5  1  7 11 45.0000000  0  5G13G24G 2G18G16                     -0.000000054
  21279548.114   111824765.092 7  21279546.523    87136301.767 5
  21713537.703   114105371.777 7  21713535.859    88913396.548 6
  23924614.347   125724679.965 6         0.000           0.000 0
  23276716.294   122319954.718 7  23276714.264    95314370.805 5
  22857153.088   120115135.19016         0.000           0.000 0
 93  5  1  7 12  0.0000000  0  5G13G24G 2G18G16                      0.000000017
  21277386.307   111813404.722 7  21277384.953    87127449.500 5
  21711242.768   114093311.811 7  21711240.934    88903999.216 6
  23934221.391   125775165.324 6         0.000           0.000 0
  23274981.398   122310837.777 7  23274979.366    95307266.686 5
  22848036.066   120067225.914 6         0.000           0.000 0
 93  5  1  7 12 15.0000000  0  5G13G24G 2G18G16                     -0.000000005
  21275253.950   111802199.111 7  21275252.590    87118717.829 5
  21708980.140   114081421.623 7  21708978.287    88894734.053 6
  23943852.838   125825777.917 6         0.000           0.000 0
  23273289.546   122301947.036 7  23273287.512    95300338.827 5
  22838956.085   120019511.293 7         0.000           0.000 0
 93  5  1  7 12 30.0000000  0  5G13G24G 2G18G16                     -0.000000030
  21273122.169   111790996.524 7  21273120.805    87109988.523 5
  21706721.423   114069550.984 7  21706719.139    88885484.218 6
  23953479.293   125876366.279 6         0.000           0.000 0
  23271612.028   122293131.618 7  23271609.992    95293469.663 5
  22829884.397   119971838.249 6  22829882.136    93484669.93616
 93  5  1  7 12 45.0000000  0  5G13G24G 2G18G16                     -0.000000056
  21270988.612   111779784.608 7  21270987.242    87101251.941 5
  21704464.068   114057688.503 7  21704461.784    88876240.728 6
  23963100.071   125926922.809 6         0.000           0.000 0
  23269946.580   122284379.629 6  23269944.539    95286649.913 5
  22820817.550   119924191.649 6  22820815.276    93447542.662 5
 93  5  1  7 12 60.0000000  0  5G13G24G 2G18G16                      0.000000005
  21268825.818   111768419.046 7  21268824.445    87092395.651 5
  21702180.440   114045687.956 7  21702178.151    88866889.631 6
  23972687.484   125977306.006 6         0.000           0.000 0
  23268265.771   122275546.919 6  23268263.728    95279767.273 5
  22811727.645   119876425.872 6  22811725.998    93410322.586 6
 93  5  1  7 13 15.0000000  0  5G13G24G 2G18G16                      0.000000049
  21266664.041   111757058.833 7  21266662.659    87083543.495 5
  21699900.280   114033705.635 7  21699897.981    88857552.720 6
  23982272.907   126027675.74316         0.000           0.000 0
  23266599.816   122266792.266 6  23266597.772    95272945.461 5
  22802645.495   119828698.852 6  22802643.612    93373132.734 6
 93  5  1  7 13 30.0000000  0  5G13G24G 2G18G16                     -0.000000104
  21264562.082   111746012.967 7  21264560.694    87074936.300 5
  21697682.149   114022049.280 7  21697679.852    88848469.852 6
  23991914.278   126078337.488 6         0.000           0.000 0
  23265008.273   122258428.651 6  23265006.221    95266428.325 5
  22793629.605   119781320.033 6  22793627.949    93336214.100 6
 93  5  1  7 13 45.0000000  0  5G13G24G 2G18G16                      0.000000014
  21262376.732   111734528.872 7  21262375.338    87065987.635 5
  21695383.160   114009967.012 7  21695380.413    88839055.033 6
  24001466.980   126128537.278 6         0.000           0.000 0
  23263348.024   122249703.984 6  23263345.972    95259629.883 5
  22784537.105   119733537.621 6  22784535.756    93298981.089 5
 93  5  1  7 14  0.0000000  0  5G13G24G 2G18G16                      0.000000012
  21260226.196   111723226.731 7  21260224.607    87057180.749 5
  21693120.089   113998075.491 7  21693117.530    88829788.906 6
  24011049.160   126178894.973 6         0.000           0.000 0
  23261737.566   122241240.967 6  23261735.511    95253035.314 5
  22775485.939   119685972.422 6  22775484.402    93261917.310 6
 93  5  1  7 14 15.0000000  0  5G13G24G 2G18G16                     -0.000000011
  21258080.984   111711953.567 7  21258079.635    87048396.447 6
  21690864.285   113986220.162 7  21690861.529    88820550.959 6
  24020633.051   126229258.660 6  24020639.178    98360580.96915
  23260147.499   122232885.112 6  23260145.441    95246524.242 5
  22766446.668   119638470.734 6  22766445.127    93224902.989 5
 93  5  1  7 14 30.0000000  0  5G13G24G 2G18G16                     -0.000000055
  21255943.969   111700723.476 7  21255942.613    87039645.699 6
  21688617.109   113974411.169 7  21688614.359    88811349.173 6
  24030221.198   126279642.712 6  24030226.685    98399841.204 5
  23258580.448   122224650.205 7  23258578.389    95240107.429 5
  22757421.781   119591044.630 6  22757420.257    93187947.654 6
 93  5  1  7 14 45.0000000  0  5G13G24G 2G18G16                     -0.000000015
  21253786.970   111689388.371 8  21253785.609    87030813.131 6
  21686349.766   113962495.202 7  21686346.811    88802063.942 6
  24039784.621   126329897.841 6  24039789.909    98439001.008 5
  23257007.804   122216385.903 7  23257005.744    95233667.708 5
  22748383.019   119543545.615 7  22748381.485    93150935.393 6
 93  5  1  7 15  0.0000000  0  5G13G24G 2G18G16                     -0.000000082
  21251671.296   111678270.428 8  21251669.930    87022149.776 6
  21684122.822   113950792.534 7  21684119.863    88792944.962 6
  24049383.804   126380341.885 6         0.000           0.000 0
  23255490.424   122208412.017 7  23255488.364    95227454.294 5
  22739392.372   119496299.447 7  22739391.072    93114120.154 6
 93  5  1  7 15 15.0000000  0  5G13G24G 2G18G16                     -0.000000054
  21249539.064   111667064.472 8  21249537.503    87013417.846 6
  21681878.242   113938997.185 7  21681875.271    88783753.733 6
  24058959.861   126430663.405 6         0.000           0.000 0
  23253970.472   122200424.618 7  23253968.413    95221230.346 5
  22730392.571   119449005.176 7  22730391.265    93077267.452 6
 93  5  1  7 15 30.0000000  0  5G13G24G 2G18G16                     -0.000000125
  21247448.667   111656080.362 8  21247447.533    87004858.770 6
  21679675.136   113927419.786 7  21679672.166    88774732.388 6
  24068570.214   126481167.154 6  24068574.338    98556873.43215
  23252506.852   122192732.241 7  23252504.602    95215236.287 5
  22721442.654   119401973.044 7  22721441.610    93040619.109 6
 93  5  1  7 15 45.0000000  0  5G13G24G 2G18G16                     -0.000000012
  21245314.759   111644865.597 8  21245313.431    86996119.979 6
  21677428.075   113915611.402 7  21677425.101    88765531.030 6
  24078129.459   126531401.322 6  24078132.351    98596016.898 5
  23251012.397   122184878.824 7  23251010.143    95209116.725 5
  22712456.344   119354749.665 7  22712455.293    93003821.645 6
 93  5  1  7 15 60.0000000  0  5G13G24G 2G18G16                     -0.000000114
  21243255.618   111634044.741 8  21243254.287    86987688.125 6
  21675255.853   113904196.299 7  21675252.879    88756636.144 6
  24087756.906   126581992.900 6  24087758.854    98635438.822 5
  23249605.314   122177485.555 7  23249603.251    95203355.737 5
  22703551.809   119307957.017 7  22703550.705    92967359.845 6
 93  5  1  7 16 15.0000000  0  5G13G24G 2G18G16                      0.000000040
  21241127.650   111622862.194 8  21241126.315    86978974.436 6
  21673015.164   113892421.395 7  21673012.182    88747460.865 6
  24097308.345   126632185.048 6  24097309.846    98674549.538 5
  23248142.173   122169795.699 7  23248139.914    95197363.618 5
  22694585.132   119260836.812 7  22694584.031    92930642.813 6
 93  5  1  7 16 30.0000000  0  5G13G24G 2G18G16                     -0.000000033
  21239077.495   111612088.554 8  21239076.152    86970579.362 6
  21670852.646   113881057.291 7  21670849.897    88738605.670 6
  24106929.941   126682746.877 6  24106930.934    98713948.281 5
  23246768.771   122162578.421 7  23246766.507    95191739.747 5
  22685703.183   119214161.856 7  22685702.323    92894272.705 6
 93  5  1  7 16 45.0000000  0  5G13G24G 2G18G16                     -0.000000039
  21237018.404   111601267.962 8  21237017.059    86962147.720 6
  21668681.320   113869645.893 7  21668678.385    88729713.692 6
  24116535.245   126733222.092 6  24116535.766    98753279.465 5
  23245398.680   122155378.543 7  23245396.411    95186129.432 5
  22676819.230   119167477.368 7  22676818.559    92857895.174 6
 93  5  1  7 16 60.0000000  0  5G13G24G 2G18G16                      0.000000018
  21234951.765   111590407.697 8  21234950.413    86953685.152 6
  21666502.157   113858194.314 7  21666499.202    88720790.302 6
  24126125.085   126783617.043 6  24126125.601    98792548.237 5
  23244033.293   122148203.386 6  23244031.267    95180538.396 5
  22667935.161   119120792.270 7  22667934.682    92821517.185 6
 93  5  1  7 17 15.0000000  0  5G13G24G 2G18G16                     -0.000000079
  21232939.269   111579831.959 8  21232937.914    86945444.304 6
  21664377.650   113847029.958 7  21664374.704    88712090.837 6
  24135761.312   126834255.754 6  24135761.818    98832006.934 6
  23242734.897   122141380.269 7  23242732.869    95175221.674 5
  22659112.733   119074431.097 7  22659112.453    92785391.632 6
 93  5  1  7 17 30.0000000  0  5G13G24G 2G18G16                     -0.000000050
  21230893.163   111569079.599 8  21230891.800    86937065.809 6
  21662220.331   113835693.168 7  21662217.369    88703256.913 6
  24145357.265   126884681.830 6  24145357.552    98871299.861 6
  23241416.191   122134450.423 7  23241414.158    95169821.772 5
  22650263.795   119027928.616 7  22650263.310    92749155.869 6
 93  5  1  7 17 45.0000000  0  5G13G24G 2G18G16                     -0.000000004
  21228844.872   111558314.757 8  21228843.314    86928677.603 6
  21660061.432   113824348.079 7  21660058.471    88694416.582 6
  24154945.001   126935065.719 6  24154945.269    98910559.959 5
  23240108.192   122127576.841 7  23240106.156    95164465.721 6
  22641419.082   118981447.334 7  22641418.212    92712936.671 6
 93  5  1  7 18  0.0000000  0  5G13G24G 2G18G16                     -0.000000041
  21226824.557   111547697.930 8  21226822.994    86920404.729 6
  21657930.779   113813151.422 8  21657927.808    88685691.876 6
  24164555.507   126985568.271 6  24164555.560    98949912.495 6
  23238841.888   122120922.371 7  23238839.850    95159280.412 6
  22632608.948   118935148.766 7  22632608.128    92676859.852 6
 93  5  1  7 18 15.0000000  0  5G13G24G 2G18G16                      0.000000034
  21224775.114   111536928.039 8  21224773.548    86912012.589 6
  21655771.075   113801802.098 8  21655768.101    88676848.238 6
  24174130.386   127035884.601 6  24174130.426    98989119.970 6
  23237560.662   122114188.484 7  23237558.430    95154033.211 6
  22623776.894   118888735.009 7  22623775.898    92640693.347 6
 93  5  1  7 18 30.0000000  0  5G13G24G 2G18G16                      0.000000022
  21222756.500   111526320.150 8  21222755.171    86903746.674 6
  21653642.198   113790613.776 8  21653639.025    88668130.024 6
  24183729.714   127086328.409 6  24183729.779    99028426.716 6
  23236324.517   122107692.495 7  23236322.282    95148971.392 6
  22614983.344   118842523.593 7  22614982.149    92604684.415 6
 93  5  1  7 18 45.0000000  0  5G13G24G 2G18G16                      0.000000028
  21220740.347   111515725.195 8  21220739.015    86895490.852 6
  21651514.616   113779433.253 8  21651511.686    88659417.930 6
  24193325.102   127136751.515 6  24193324.957    99067717.366 6
  23235105.315   122101285.545 7  23235103.077    95143978.951 6
  22606199.964   118796365.619 7  22606198.580    92568717.166 6
 93  5  1  7 18 60.0000000  0  5G13G24G 2G18G16                      0.000000037
  21218729.051   111505154.760 8  21218727.523    86887254.130 6
  21649390.756   113768273.296 7  21649388.008    88650721.824 6
  24202918.340   127187164.317 6  24202918.172    99106999.978 6
  23233905.728   122094981.673 7  23233903.490    95139066.841 6
  22597428.472   118750271.117 7  22597427.086    92532799.366 6
 93  5  1  7 19 15.0000000  0  5G13G24G 2G18G16                      0.000000044
  21216723.114   111494613.491 8  21216721.581    86879040.130 6
  21647272.469   113757141.624 7  21647269.722    88642047.794 6
  24212510.011   127237568.889 6  24212510.076    99146276.221 6
  23232726.981   122088786.316 7  23232724.794    95134239.278 6
  22588670.426   118704247.277 7  22588669.038    92496936.624 6
 93  5  1  7 19 30.0000000  0  5G13G24G 2G18G16                     -0.000000058
  21214753.766   111484264.497 8  21214752.227    86870975.956 6
  21645190.838   113746201.577 7  21645187.892    88633523.051 6
  24222131.546   127288129.398 6  24222131.393    99185673.904 6
  23231599.617   122082861.979 7  23231597.427    95129622.900 6
  22579957.037   118658457.107 7  22579955.462    92461255.986 6
 93  5  1  7 19 45.0000000  0  5G13G24G 2G18G16                     -0.000000066
  21212764.038   111473808.404 8  21212762.494    86862828.333 6
  21643087.836   113735150.229 7  21643084.883    88624911.579 6
  24231724.994   127338544.308 6  24231725.239    99224958.101 6
  23230466.244   122076906.066 7  23230464.051    95124981.913 6
  22571230.798   118612600.412 7  22571228.978    92425523.491 6
 93  5  1  7 19 60.0000000  0  5G13G24G 2G18G16                     -0.000000069
  21210784.967   111463407.318 8  21210783.228    86854723.570 6
  21640993.899   113724146.516 7  21640990.946    88616337.257 6
  24241320.375   127388968.375 6  24241320.612    99264249.547 6
  23229357.171   122071077.843 7  23229354.973    95120440.426 6
  22562523.433   118566841.902 7  22562521.425    92389867.519 6
 93  5  1  7 20 15.0000000  0  5G13G24G 2G18G16                      0.000000027
  21208788.514   111452915.887 8  21208786.772    86846548.414 6
  21638881.378   113713045.144 7  21638878.662    88607686.806 6
  24250888.843   127439251.013 6  24250889.051    99303430.708 6
  23228245.050   122065233.612 7  23228242.846    95115886.450 6
  22553806.682   118521035.065 7  22553804.676    92354173.887 6
 93  5  1  7 20 30.0000000  0  5G13G24G 2G18G16                      0.000000013
  21206834.506   111442647.506 8  21206832.758    86838547.054 6
  21636810.314   113702160.625 7  21636807.399    88599205.331 6
  24260490.317   127489706.101 6  24260490.316    99342746.284 6
  23227189.661   122059687.502 7  23227187.452    95111564.787 6
  22545139.828   118475490.439 7  22545137.823    92318684.573 6
 93  5  1  7 20 45.0000000  0  5G13G24G 2G18G16                     -0.000000016
  21204894.692   111432453.716 8  21204892.940    86830603.824 6
  21634751.795   113691343.036 7  21634748.880    88590776.038 6
  24270096.675   127540187.851 6  24270096.897    99382082.626 5
  23226162.642   122054290.482 6  23226160.427    95107359.294 6
  22536494.376   118430058.285 7  22536492.374    92283282.907 6
 93  5  1  7 21  0.0000000  0  5G13G24G 2G18G16                      0.000000030
  21202941.799   111422190.193 8  21202939.848    86822606.240 6
  21632678.635   113680448.507 7  21632675.469    88582286.767 6
  24279680.478   127590551.078 6  24279680.676    99421326.597 5
  23225136.833   122048898.821 7  23225134.423    95103157.977 6
  22527842.819   118384594.044 7  22527840.816    92247856.220 6
 93  5  1  7 21 15.0000000  0  5G13G24G 2G18G16                      0.000000047
  21201005.658   111412015.703 8  21201003.947    86814678.047 6
  21630621.510   113669638.244 7  21630618.337    88573863.157 6
  24289271.954   127640953.625 6  24289271.944    99460601.239 6
  23224141.736   122043669.548 7  23224139.319    95099083.195 6
  22519215.469   118339257.014 7  22519213.459    92212528.638 6
 93  5  1  7 21 30.0000000  0  5G13G24G 2G18G16                      0.000000024
  21199088.570   111401941.336 8  21199086.854    86806827.874 6
  21628582.274   113658921.986 7  21628579.100    88565512.821 6
  24298873.935   127691411.376 6  24298873.706    99499918.848 6
  23223179.313   122038611.981 7  23223177.136    95095142.216 6
  22510614.226   118294056.179 7  22510612.031    92177307.228 6
 93  5  1  7 21 45.0000000  0  5G13G24G 2G18G16                     -0.000000041
  21197191.668   111391973.051 8  21197189.946    86799060.353 6
  21626561.698   113648303.786 8  21626558.519    88557238.879 6
  24308487.355   127741930.236 6  24308487.109    99539284.126 5
  23222250.643   122033731.786 7  23222248.462    95091339.449 6
  22502039.532   118248995.857 7  22502037.345    92142195.323 6
 93  5  1  7 21 60.0000000  0  5G13G24G 2G18G16                     -0.000000050
  21195287.400   111381966.054 8  21195285.672    86791262.666 6
  21624532.367   113637638.578 8  21624528.992    88548928.308 6
  24318084.416   127792363.133 7  24318084.401    99578582.432 5
  23221328.158   122028884.097 7  23221325.976    95087562.023 6
  22493464.584   118203934.200 7  22493462.392    92107082.322 6
 93  5  1  7 22 15.0000000  0  5G13G24G 2G18G16                     -0.000000019
  21193377.230   111371927.041 8  21193375.307    86783440.041 6
  21622495.471   113626934.619 8  21622492.091    88540587.537 6
  24327667.075   127842720.345 7  24327667.038    99617821.727 5
  23220413.936   122024078.830 7  23220411.560    95083817.645 6
  22484890.439   118158876.762 7  22484888.247    92071972.631 6
 93  5  1  7 22 30.0000000  0  5G13G24G 2G18G16                     -0.000000060
  21191491.202   111362015.899 8  21191489.273    86775717.047 6
  21620482.227   113616354.950 8  21620478.845    88532343.631 6
  24337266.421   127893165.249 7  24337266.372    99657129.397 5
  23219538.135   122019476.461 7  23219535.753    95080231.359 6
  22476347.581   118113982.742 7  22476345.202    92036990.290 6
 93  5  1  7 22 45.0000000  0  5G13G24G 2G18G16                      0.000000117
  21189543.330   111351779.760 8  21189541.397    86767740.820 6
  21618406.352   113605446.155 8  21618402.956    88523843.214 6
  24346796.701   127943247.207 7  24346796.602    99696154.097 5
  23218613.881   122014619.477 7  23218611.497    95076446.686 6
  22467749.620   118068800.154 7  22467747.237    92001783.061 6
 93  5  1  7 22 60.0000000  0  5G13G24G 2G18G16                      0.000000021
  21187681.468   111341995.611 8  21187679.529    86760116.783 6
  21616415.791   113594985.687 8  21616412.398    88515692.212 6
  24356405.894   127993742.860 7  24356405.608    99735501.370 5
  23217788.366   122010281.363 7  23217785.974    95073066.309 6
  22459244.744   118024106.729 7  22459242.373    91966957.067 6
 93  5  1  7 23 15.0000000  0  5G13G24G 2G18G16                     -0.000000058
  21185818.863   111332207.558 8  21185816.918    86752489.703 6
  21614423.952   113584518.501 8  21614420.551    88507535.931 6
  24366006.393   128044193.824 7  24366006.101    99774813.784 5
  23216974.788   122006005.985 7  23216972.391    95069734.822 6
  22450746.324   117979447.229 7  22450744.188    91932157.417 6
 93  5  1  7 23 30.0000000  0  5G13G24G 2G18G16                     -0.000000032
  21183927.448   111322268.103 8  21183925.497    86744744.650 6
  21612403.139   113573899.055 8  21612399.980    88499261.032 6
  24375570.091   128094451.394 7  24375569.734    99813975.263 5
  23216144.870   122001644.734 7  23216142.466    95066336.419 6
  22442225.840   117934671.781 7  22442223.708    91897267.475 6
 93  5  1  7 23 45.0000000  0  5G13G24G 2G18G16                      0.000000103
  21182008.558   111312185.267 8  21182006.793    86736887.877 6
  21610354.275   113563132.206 8  21610351.115    88490871.272 6
  24385098.271   128144521.319 7  24385097.719    99852990.769 5
  23215300.267   121997206.318 7  23215298.104    95062877.896 6
  22433685.211   117889790.476 7  22433683.080    91862295.035 6
 93  5  1  7 24  0.0000000  0  5G13G24G 2G18G16                     -0.000000039
  21180181.355   111302583.253 8  21180179.587    86729405.773 6
  21608395.953   113552841.153 8  21608392.788    88482852.249 6
  24394708.499   128195022.407 7  24394707.738    99892342.191 5
  23214559.725   121993314.741 7  23214557.554    95059845.469 6
  22425243.926   117845430.223 7  22425241.604    91827728.602 6
 93  5  1  7 24 15.0000000  0  5G13G24G 2G18G16                     -0.000000077
  21178329.712   111292852.801 8  21178328.180    86721823.574 6
  21606412.107   113542415.969 8  21606408.938    88474728.716 6
  24404285.115   128245346.862 6         0.000           0.000 0
  23213807.376   121989361.122 6  23213805.199    95056764.702 6
  22416785.217   117800979.409 7  22416783.138    91793091.594 6
 93  5  1  7 24 30.0000000  0  5G13G24G 2G18G16                     -0.000000021
  21176454.889   111283000.542 8  21176453.351    86714146.462 6
  21604403.910   113531863.826 8  21604400.923    88466506.230 6
  24413828.952   128295501.068 6         0.000           0.000 0
  23213044.808   121985353.802 7  23213042.630    95053642.108 6
  22408310.012   117756441.904 7  22408307.932    91758387.042 6
 93  5  1  7 24 45.0000000  0  5G13G24G 2G18G16                      0.000000032
  21174587.898   111273189.437 8  21174586.354    86706501.421 6
  21602402.471   113521346.194 8  21602399.483    88458310.669 6
  24423371.161   128345644.711 6         0.000           0.000 0
  23212302.430   121981452.574 7  23212300.247    95050602.173 6
  22399849.376   117711980.961 7  22399847.296    91723742.156 6
 93  5  1  7 25  0.0000000  0  5G13G24G 2G18G16                     -0.000000113
  21172788.366   111263732.833 8  21172786.820    86699132.631 6
  21600466.660   113511173.437 8  21600463.673    88450383.847 6
  24432970.625   128396090.236 6         0.000           0.000 0
  23211640.357   121977972.362 7  23211638.225    95047890.302 6
  22391463.083   117667910.692 7  22391461.007    91689401.703 6
 93  5  1  7 25 15.0000000  0  5G13G24G 2G18G16                      0.000000030
  21170911.362   111253870.110 8  21170910.004    86691447.381 6
  21598451.660   113500584.540 8  21598448.653    88442132.678 6
  24442481.886   128446072.250 6  24442486.225   100087966.10515
  23210914.574   121974158.346 7  23210912.437    95044918.324 6
  22383006.727   117623472.246 7  22383004.648    91654774.328 6
 93  5  1  7 25 30.0000000  0  5G13G24G 2G18G16                     -0.000000033
  21169105.205   111244377.693 8  21169103.647    86684050.653 6
  21596504.936   113490354.436 8  21596501.925    88434161.152 6
  24452052.636   128496366.880 6  24452057.441   100127156.634 5
  23210273.346   121970788.666 7  23210271.204    95042292.582 6
  22374627.978   117579441.621 7  22374625.899    91620464.749 6
 93  5  1  7 25 45.0000000  0  5G13G24G 2G18G16                     -0.000000107
  21167312.286   111234955.839 8  21167310.969    86676708.936 6
  21594569.179   113480180.962 8  21594566.209    88426233.718 6
  24461626.472   128546676.732 6         0.000           0.000 0
  23209659.533   121967563.058 7  23209657.387    95039779.102 6
  22366270.240   117535521.411 7  22366268.162    91586241.214 6
 93  5  1  7 25 60.0000000  0  5G13G24G 2G18G16                      0.000000004
  21165475.387   111225301.868 8  21165473.631    86669186.345 6
  21592586.104   113469759.837 8  21592583.129    88418113.339 6
  24471145.859   128596700.444 6  24471144.388   100205338.49115
  23209015.454   121964178.399 7  23209013.301    95037141.679 6
  22357876.517   117491412.100 7  22357874.677    91551870.296 6
 93  5  1  7 26 15.0000000  0  5G13G24G 2G18G16                     -0.000000005
  21163683.593   111215884.926 8  21163681.645    86661848.459 6
  21590645.182   113459560.218 8  21590642.205    88410165.578 7
  24480700.262   128646909.173 6  24480698.995   100244462.013 5
  23208430.170   121961103.715 7  23208428.204    95034745.803 6
  22349535.170   117447578.027 7  22349533.337    91517713.902 6
 93  5  1  7 26 30.0000000  0  5G13G24G 2G18G16                     -0.000000050
  21161909.354   111206561.238 8  21161907.401    86654583.226 6
  21588719.397   113449440.152 8  21588716.409    88402279.765 6
  24490262.865   128697159.988 6  24490261.633   100283618.415 5
  23207876.856   121958196.028 7  23207874.881    95032480.040 6
  22341218.589   117403874.096 7  22341216.745    91483658.850 6
 93  5  1  7 26 45.0000000  0  5G13G24G 2G18G16                      0.000000064
  21160095.675   111197029.289 8  21160093.772    86647155.719 6
  21586751.501   113439097.787 8  21586748.317    88394220.761 6
  24499775.454   128747148.981 6  24499773.945   100322570.742 5
  23207297.622   121955152.133 7  23207295.643    95030108.156 6
  22332869.805   117360000.942 7  22332867.968    91449472.002 6
 93  5  1  7 27  0.0000000  0  5G13G24G 2G18G16                      0.000000048
  21158331.179   111187756.800 8  21158329.273    86639930.391 6
  21584829.731   113428998.818 8  21584826.547    88386351.430 6
  24509327.456   128797344.092 5  24509325.732   100361683.714 5
  23206781.596   121952440.397 7  23206779.853    95027995.080 6
  22324578.560   117316430.151 7  22324576.717    91415520.714 6
 93  5  1  7 27 15.0000000  0  5G13G24G 2G18G16                      0.000000093
  21156558.968   111178443.772 8  21156557.063    86632673.488 6
  21582897.014   113418842.326 8  21582894.075    88378437.281 6
  24518861.006   128847443.235 6  24518859.241   100400721.839 5
  23206272.572   121949764.459 7  23206270.634    95025909.915 6
  22316288.140   117272863.701 7  22316286.053    91381572.832 6
 93  5  1  7 27 30.0000000  0  5G13G24G 2G18G16                     -0.000000102
  21154868.351   111169559.517 8  21154866.441    86625750.671 6
  21581043.107   113409098.978 8  21581039.971    88370845.036 6
  24528465.841   128897915.985 6  24528464.116   100440051.198 5
  23205858.880   121947590.494 7  23205856.940    95024215.908 6
  22308087.305   117229768.023 7  22308085.461    91347991.779 6
 93  5  1  7 27 45.0000000  0  5G13G24G 2G18G16                     -0.000000056
  21153114.149   111160340.125 8  21153112.049    86618566.730 6
  21579122.171   113399004.390 8  21579119.023    88362979.075 6
  24537996.841   128948000.726 6  24537995.144   100479078.164 5
  23205394.895   121945151.233 7  23205392.762    95022315.175 6
  22299830.260   117186376.960 7  22299828.417    91314180.564 6
 93  5  1  7 28  0.0000000  0  5G13G24G 2G18G16                      0.000000033
  21151355.862   111151100.263 8  21151353.755    86611366.813 6
  21577194.462   113388874.212 8  21577191.314    88355085.431 6
  24547513.285   128998009.979 6  24547512.053   100518046.313 5
  23204940.212   121942761.862 7  23204938.074    95020453.305 6
  22291577.167   117143006.663 7  22291575.329    91280385.548 6
 93  5  1  7 28 15.0000000  0  5G13G24G 2G18G16                     -0.000000036
  21149653.747   111142155.588 8  21149651.636    86604396.918 6
  21575319.906   113379023.354 8  21575316.746    88347409.388 6
  24557074.731   129048255.717 6  24557073.474   100557198.737 5
  23204555.520   121940740.292 7  23204553.378    95018878.040 6
  22283387.207   117099969.133 7  22283385.546    91246849.757 6
 93  5  1  7 28 30.0000000  0  4G13G24G18G16                        -0.000000063
  21147950.343   111133204.138 8  21147948.472    86597421.745 6
  21573441.453   113369151.013 8  21573438.101    88339716.649 6
  23204183.692   121938786.323 7  23204181.547    95017355.453 6
  22275203.038   117056961.034 7  22275201.380    91213336.964 6
 93  5  1  7 28 45.0000000  0  4G13G24G18G16                        -0.000000062
  21146246.485   111124250.305 8  21146244.611    86590444.721 6
  21571559.734   113359262.514 8  21571556.376    88332011.301 6
  23203825.548   121936904.259 7  23203823.394    95015888.875 6
  22267026.421   117013991.621 7  22267024.569    91179854.290 6
 93  5  1  7 28 60.0000000  0  4G13G24G18G16                         0.000000040
  21144514.861   111115149.561 8  21144512.792    86583353.213 6
  21569647.348   113349212.859 8  21569643.985    88324180.378 6
  23203453.329   121934948.238 7  23203451.172    95014364.691 6
  22258829.769   116970917.923 7  22258827.925    91146290.405 6
 93  5  1  7 29 15.0000000  0  4G13G24G18G16                        -0.000000048
  21142844.192   111106370.134 8  21142842.116    86576512.074 6
  21567793.516   113339470.904 8  21567790.143    88316589.205 6
  23203155.944   121933384.471 7  23203153.593    95013146.155 6
  22250701.677   116928204.512 7  22250699.581    91113007.194 6
 93  5  1  7 29 30.0000000  0  4G13G24G18G16                        -0.000000032
  21141148.027   111097456.728 8  21141145.945    86569566.535 6
  21565912.076   113329583.874 8  21565908.943    88308885.007 6
  23202845.362   121931753.347 7  23202843.194    95011875.124 6
  22242554.497   116885391.793 7  22242552.587    91079646.615 6
 93  5  1  7 29 45.0000000  0  4G13G24G18G16                        -0.000000102
  21139486.090   111088723.189 8  21139484.004    86562761.164 6
  21564062.646   113319864.052 8  21564059.316    88301311.094 6
  23202581.275   121930365.562 7  23202579.103    95010793.712 6
  22234448.534   116842793.668 7  22234446.434    91046453.272 6
 93  5  1  7 30  0.0000000  0  4G13G24G18G16                        -0.000000063
  21137800.887   111079867.386 8  21137798.794    86555860.510 6
  21562186.986   113310007.394 8  21562183.657    88293630.581 6
  23202306.389   121928920.028 7  23202304.024    95009667.310 6
  22226326.582   116800112.525 7  22226324.238    91013195.240 6
 93  5  1  7 30 15.0000000  0  4G13G24G18G16                        -0.000000014
  21136122.938   111071049.708 8  21136120.840    86548989.572 6
  21560315.514   113300172.738 8  21560312.422    88285967.189 6
  23202050.691   121927576.326 7  23202048.565    95008620.248 6
  22218219.177   116757507.824 7  22218216.839    90979996.794 6
 93  5  1  7 30 30.0000000  0  4G13G24G18G16                        -0.000000056
  21134482.754   111062430.480 8  21134480.651    86542273.271 6
  21558478.709   113290520.263 8  21558475.608    88278445.740 6
  23201844.833   121926494.536 7  23201842.703    95007777.278 6
  22210156.457   116715137.944 8  22210154.114    90946981.283 6
 93  5  1  7 30 45.0000000  0  4G13G24G18G16                         0.000000006
  21132822.529   111053705.940 8  21132820.423    86535474.913 6
  21556618.970   113280747.269 8  21556615.866    88270830.410 6
  23201630.431   121925367.844 7  23201628.295    95006899.315 6
  22202081.192   116672702.142 8  22202078.842    90913914.396 6
 93  5  1  7 31  0.0000000  0  4G13G24G18G16                        -0.000000120
  21131231.575   111045345.422 8  21131229.466    86528960.214 6
  21554825.282   113271320.375 8  21554822.229    88263484.763 6
  23201496.425   121924663.639 7  23201494.283    95006350.556 6
  22194082.597   116630669.242 8  22194080.250    90881161.497 6
 93  5  1  7 31 15.0000000  0  4G13G24G18G16                        -0.000000045
  21129594.232   111036741.125 8  21129592.117    86522255.541 6
  21552981.109   113261629.182 8  21552978.048    88255933.152 6
  23201327.312   121923773.941 7  23201324.977    95005657.276 6
  22186044.512   116588428.817 8  22186042.158    90848246.857 7
 93  5  1  7 31 30.0000000  0  4G13G24G18G16                         0.000000032
  21127970.041   111028204.945 8  21127967.731    86515603.951 6
  21551145.711   113251984.100 8  21551142.643    88248417.475 7
  23201182.387   121923012.359 7  23201180.050    95005063.824 6
  22178026.163   116546292.110 8  22178023.812    90815413.069 6
 93  5  1  7 31 45.0000000  0  4G13G24G18G16                        -0.000000093
  21126418.266   111020050.309 8  21126415.951    86509249.673 6
  21549378.392   113242696.775 8  21549375.318    88241180.575 6
  23201122.536   121922696.836 7  23201120.001    95004817.935 6
  22170087.887   116504576.187 8  22170085.787    90782907.183 6
 93  5  1  7 31 60.0000000  0  4G13G24G18G16                        -0.000000134
  21124852.347   111011821.352 8  21124850.029    86502837.483 6
  21547592.251   113233310.540 8  21547589.178    88233866.632 7
  23201061.296   121922375.019 7  23201058.759    95004567.158 6
  22162143.266   116462826.924 8  22162141.156    90750375.246 6
 93  5  1  7 32 15.0000000  0  4G13G24G18G16                        -0.000000102
  21123273.879   111003526.448 8  21123271.555    86496373.897 6
  21545789.616   113223836.630 8  21545786.349    88226484.346 6
  23201000.683   121922056.494 7  23200998.143    95004318.946 6
  22154193.641   116421051.363 8  22154191.534    90717822.873 7
 93  5  1  7 32 30.0000000  0  4G13G24G18G16                         0.000000093
  21121654.493   110995015.518 8  21121651.978    86489742.000 6
  21543941.596   113214125.218 8  21543938.562    88218916.970 6
  23200912.652   121921593.890 7  23200910.110    95003958.464 6
  22146209.973   116379096.904 8  22146207.866    90685131.088 7
 93  5  1  7 32 45.0000000  0  4G13G24G18G16                        -0.000000041
  21120141.611   110987065.268 8  21120139.089    86483546.973 6
  21542196.254   113204952.387 8  21542193.036    88211769.332 6
  23200944.964   121921763.692 7  23200942.418    95004090.762 6
  22138340.100   116337740.442 8  22138337.984    90652905.237 6
 93  5  1  7 32 60.0000000  0  4G13G24G18G16                        -0.000000115
  21118619.483   110979066.430 8  21118616.954    86477314.084 6
  21540437.000   113195708.443 8  21540433.966    88204566.233 7
  23200981.433   121921955.336 7  23200978.885    95004240.086 6
  22130468.146   116296373.044 8  22130466.031    90620670.906 7
 93  5  1  7 33 15.0000000  0  4G13G24G18G16                        -0.000000037
  21117059.953   110970871.046 8  21117057.420    86470928.052 6
  21538636.101   113186244.654 8  21538633.059    88197191.820 7
  23200994.354   121922023.237 7  23200991.805    95004292.991 6
  22122565.503   116254844.376 8  22122563.390    90588310.910 7
 93  5  1  7 33 30.0000000  0  4G13G24G18G16                        -0.000000009
  21115522.591   110962792.151 8  21115520.054    86464632.797 6
  21536853.030   113176874.552 8  21536849.985    88189890.431 7
  23201043.151   121922279.668 7  23201040.599    95004492.796 6
  22114691.744   116213467.490 8  22114689.630    90556069.182 7
 93  5  1  7 33 45.0000000  0  4G13G24G18G16                        -0.000000033
  21114008.717   110954836.690 8  21114006.177    86458433.723 6
  21535089.254   113167604.847 8  21535086.015    88182667.269 7
  23201129.066   121922731.151 7  23201126.509    95004844.584 6
  22106848.563   116172251.298 7  22106846.451    90523952.675 7
 93  5  1  7 34  0.0000000  0  4G13G24G18G16                        -0.000000013
  21112489.879   110946855.142 8  21112487.580    86452214.321 6
  21533316.060   113158286.650 8  21533312.819    88175406.326 7
  23201223.449   121923227.139 7  23201221.131    95005231.045 6
  22099007.547   116131046.479 7  22099005.434    90491845.021 7
 93  5  1  7 34 15.0000000  0  4G13G24G18G16                         0.000000050
  21110967.361   110938854.258 8  21110965.055    86445979.836 6
  21531534.795   113148926.041 8  21531531.548    88168112.320 6
  23201327.047   121923771.549 7  23201324.723    95005655.238 6
  22091169.429   116089856.890 7  22091167.318    90459749.244 7
 93  5  1  7 34 30.0000000  0  4G13G24G18G16                         0.000000055
  21109471.786   110930994.959 8  21109469.477    86439855.693 6
  21529775.952   113139683.259 8  21529772.702    88160910.139 6
  23201470.052   121924524.049 7  23201467.914    95006241.582 6
  22083364.649   116048842.494 7  22083362.536    90427789.966 7
 93  5  1  7 34 45.0000000  0  4G13G24G18G16                        -0.000000101
  21108033.376   110923436.064 8  21108031.065    86433965.639 6
  21528070.061   113130718.739 8  21528066.806    88153924.779 7
  23201683.272   121925644.522 7  23201681.130    95007114.662 6
  22075623.181   116008161.809 7  22075621.254    90396090.712 7
 93  5  1  7 34 60.0000000  0  4G13G24G18G16                        -0.000000126
  21106565.257   110915721.046 8  21106563.187    86427953.923 6
  21526330.404   113121576.783 8  21526327.145    88146801.161 7
  23201879.427   121926674.326 7  23201877.090    95007917.085 6
  22067858.975   115967360.628 7  22067857.295    90364297.596 6
 93  5  1  7 35 15.0000000  0  4G13G24G18G16                        -0.000000026
  21105068.776   110907856.985 8  21105066.699    86421826.056 6
  21524558.132   113112263.429 8  21524555.112    88139543.980 7
  23202059.696   121927621.648 7  23202057.603    95008655.256 6
  22060073.506   115926447.713 7  22060071.828    90332417.411 6
 93  5  1  7 35 30.0000000  0  4G13G24G18G16                        -0.000000002
  21103603.860   110900158.797 8  21103601.776    86415827.441 6
  21522813.191   113103093.704 8  21522810.167    88132398.722 7
  23202284.224   121928801.550 7  23202282.126    95009574.644 6
  22052327.240   115885740.812 8  22052325.557    90300697.728 6
 93  5  1  7 35 45.0000000  0  4G13G24G18G16                        -0.000000060
  21102171.268   110892630.477 8  21102169.179    86409961.192 6
  21521096.937   113094074.724 8  21521093.904    88125370.912 7
  23202553.841   121930218.395 7  23202551.744    95010678.683 6
  22044621.160   115845245.087 8  22044619.475    90269142.611 6
 93  5  1  7 35 60.0000000  0  4G13G24G18G16                         0.000000084
  21100684.536   110884817.645 8  21100682.443    86403873.258 6
  21519323.006   113084752.658 8  21519319.979    88118106.986 7
  23202782.469   121931419.845 6  23202780.369    95011614.864 6
  22036868.501   115804504.589 8  22036866.809    90237396.738 6
 93  5  1  7 36 15.0000000  0  4G13G24G18G16                         0.000000033
  21099262.229   110877343.375 8  21099260.132    86398049.132 6
  21517610.474   113075753.241 8  21517607.437    88111094.412 6
  23203088.664   121933028.912 6  23203086.563    95012868.676 6
  22029187.487   115764140.587 8  22029185.799    90205944.287 7
 93  5  1  7 36 30.0000000  0  4G13G24G18G16                        -0.000000119
  21097876.101   110870059.223 8  21097873.997    86392373.143 6
  21515931.246   113066928.839 8  21515928.207    88104218.248 6
  23203444.045   121934896.447 6  23203441.940    95014323.887 6
  22021549.861   115724003.592 8  22021547.984    90174668.710 6
 93  5  1  7 36 45.0000000  0  4G13G24G18G16                        -0.000000083
  21096438.743   110862505.853 8  21096436.635    86386487.383 6
  21514197.952   113057820.316 8  21514195.150    88097120.669 7
  23203761.367   121936563.990 6  23203759.260    95015623.260 6
  22013868.107   115683635.705 8  22013866.233    90143213.225 6
 93  5  1  7 37  0.0000000  0  4G13G24G18G16                        -0.000000050
  21095009.921   110854997.344 8  21095007.810    86380636.584 6
  21512469.750   113048738.553 8  21512466.946    88090043.963 6
  23204099.585   121938342.334 6  23204097.666    95017008.973 6
  22006202.080   115643351.459 8  22006200.393    90111822.890 6
 93  5  1  7 37 15.0000000  0  4G13G24G18G16                        -0.000000020
  21093591.084   110847541.305 8  21093588.970    86374826.671 6
  21510747.580   113039687.487 8  21510744.578    88082991.153 6
  23204460.273   121940237.766 7  23204458.351    95018485.920 6
  21998553.705   115603157.977 8  21998551.827    90080503.293 6
 93  5  1  7 37 30.0000000  0  4G13G24G18G16                         0.000000098
  21092154.213   110839990.496 8  21092152.093    86368942.903 6
  21509003.346   113030521.479 8  21509000.352    88075848.837 7
  23204815.220   121942103.025 7  23204813.294    95019939.353 6
  21990894.113   115562906.550 8  21990892.229    90049138.518 6
 93  5  1  7 37 45.0000000  0  4G13G24G18G16                        -0.000000087
  21090817.686   110832967.001 8  21090815.805    86363470.027 6
  21507355.652   113021863.787 8  21507352.834    88069102.530 6
  23205282.310   121944557.598 7  23205280.378    95021851.982 6
  21983340.927   115523215.287 8  21983339.233    90018210.265 7
 93  5  1  7 38  0.0000000  0  4G13G24G18G16                         0.000000007
  21089406.884   110825553.185 8  21089404.999    86357693.012 6
  21505629.487   113012792.726 8  21505626.662    88062034.142 6
  23205687.162   121946685.111 6  23205685.226    95023509.768 6
  21975719.489   115483164.363 8  21975717.795    89987001.748 6
 93  5  1  7 38 15.0000000  0  4G13G24G18G16                        -0.000000007
  21088040.026   110818370.298 8  21088038.138    86352095.945 6
  21503942.697   113003927.589 8  21503939.682    88055126.242 6
  23206147.794   121949104.746 6  23206145.665    95025395.187 6
  21968148.008   115443375.960 8  21968146.307    89955997.769 6
 93  5  1  7 38 30.0000000  0  4G13G24G18G16                        -0.000000127
  21086717.621   110811421.015 8  21086715.728    86346680.896 6
  21502294.644   112995267.008 8  21502291.616    88048377.688 6
  23206663.930   121951817.057 7  23206662.041    95027508.663 6
  21960627.057   115403853.095 8  21960625.361    89925200.753 6
 93  5  1  7 38 45.0000000  0  4G13G24G18G16                         0.000000035
  21085323.838   110804096.634 8  21085321.940    86340973.565 6
  21500568.997   112986198.672 8  21500565.969    88041311.452 6
  23207120.413   121954215.895 7  23207118.521    95029377.870 6
  21953041.344   115363989.903 8  21953039.402    89894138.519 6
 93  5  1  7 38 60.0000000  0  4G13G24G18G16                         0.000000083
  21083977.107   110797018.514 8  21083975.013    86335458.126 6
  21498883.866   112977343.250 8  21498881.080    88034411.112 6
  23207635.668   121956923.580 7  23207633.769    95031487.725 6
  21945509.344   115324408.980 8  21945507.404    89863296.245 6
 93  5  1  7 39 15.0000000  0  4G13G24G18G16                         0.000000015
  21082678.017   110790191.753 8  21082675.922    86330138.566 6
  21497240.084   112968705.120 8  21497237.288    88027680.057 6
  23208210.644   121959945.099 7  23208208.742    95033842.143 6
  21938031.944   115285114.975 8  21938030.004    89832677.544 6
 93  5  1  7 39 30.0000000  0  4G13G24G18G16                         0.000000017
  21081368.967   110783312.649 8  21081366.870    86324778.217 6
  21495580.403   112959983.433 8  21495577.605    88020883.935 6
  23208787.773   121962977.927 6  23208785.864    95036205.361 6
  21930551.548   115245805.228 8  21930549.603    89802046.554 6
 93  5  1  7 39 45.0000000  0  4G13G24G18G16                        -0.000000007
  21080080.252   110776540.406 8  21080078.152    86319501.132 6
  21493934.796   112951335.713 8  21493931.996    88014145.439 6
  23209397.040   121966179.649 7  23209395.122    95038700.171 6
  21923098.441   115206637.888 8  21923096.309    89771526.560 6
 93  5  1  7 40  0.0000000  0  4G13G24G18G16                         0.000000036
  21078783.833   110769727.677 8  21078781.728    86314192.490 6
  21492274.557   112942611.097 8  21492271.752    88007347.018 6
  23210010.817   121969405.072 6  23210008.893    95041213.461 6
  21915644.376   115167466.510 8  21915642.243    89741003.405 6
 93  5  1  7 40 15.0000000  0  4G13G24G18G16                         0.000000045
  21077509.699   110763031.060 8  21077507.401    86308974.337 6
  21490629.463   112933966.068 8  21490626.652    88000610.611 6
  23210659.015   121972811.372 6  23210657.088    95043867.711 6
  21908219.904   115128450.648 8  21908217.525    89710601.424 6
 93  5  1  7 40 30.0000000  0  4G13G24G18G16                         0.000000018
  21076258.730   110756457.171 8  21076256.427    86303851.808 6
  21489000.983   112925407.350 8  21488997.976    87993941.452 6
  23211342.473   121976402.968 6  23211340.540    95046666.334 6
  21900826.174   115089596.337 8  21900823.792    89680325.325 6
 93  5  1  7 40 45.0000000  0  4G13G24G18G16                        -0.000000050
  21075032.310   110750012.293 8  21075030.005    86298829.815 6
  21487390.089   112916942.043 8  21487387.077    87987345.091 6
  23212062.435   121980186.395 7  23212060.492    95049614.416 6
