     2              OBSERVATION DATA    G (GPS)             RINEX VERSION / TYPE
PC100S2                                 03-MAY-93 15:13:27  PGM / RUN BY / DATE 
                                                            OBSERVER / AGENCY  
                     GPS 100 SRVY II     2.01               REC # / TYPE / VERS 
                                                            ANT # / TYPE        
     2    C1    D1                                          # / TYPES OF OBSERV 
     1     0                                                WAVELENGTH FACT L1/2
  1993     5     1     6    48    4.000000                  TIME OF FIRST OBS   
                                                            END OF HEADER
                            4  4                                                
          --> THIS IS THE START OF A NEW SITE <--           COMMENT             
4419  ____________ ____________                             MARKER NAME         
  5313582.9174  2390295.2433 -2588881.6731                  APPROX POSITION XYZ 
        0.0000        0.0000        0.0000                  ANTENNA: DELTA H/E/N
 93  5  1  6 48  4.0000000  0  7G 2G24G18G13G12G29G16
  37241942.000       35072.160
  36440354.000       30846.799
  37702548.000       30794.115
  35920104.000       30878.994
  38555844.000       32139.480
  38778714.000       32297.529
  38071296.000       28408.752
 93  5  1  6 48  6.0000000  0  7G 2G24G18G13G12G29G16
  37255277.000       35071.184
  36452092.000       30848.748
  37714272.500       30794.115
  35931859.500       30883.871
  38568072.500       32137.527
  38791012.500       32294.602
  38082108.000       28408.752
 93  5  1  6 48  7.0000000  0  7G 2G24G18G13G12G29G16
  37261960.250       35072.160
  36457951.750       30849.727
  37720127.500       30793.141
  35937735.500       30882.896
  38574188.500       32138.506
  38797157.500       32294.602
  38087497.000       28405.824
 93  5  1  6 48  8.0000000  0  7G 2G24G18G13G12G29G16
  37268634.250       35072.160
  36463822.250       30849.727
  37725980.750       30794.115
  35943601.750       30883.871
  38580321.250       32137.527
  38803303.000       32294.602
  38092902.500       28405.824
 93  5  1  6 48  9.0000000  0  7G 2G24G18G13G12G29G16
  37275301.250       35072.160
  36469705.250       30849.727
  37731840.750       30794.115
  35949478.750       30883.871
  38586436.750       32137.527
  38809454.000       32297.529
  38098308.000       28405.824
 93  5  1  6 48 10.0000000  0  7G 2G24G18G13G12G29G16
  37281975.250       35072.160
  36475575.750       30849.727
  37737710.250       30793.141
  35955358.250       30884.846
  38592534.750       32138.506
  38815599.000       32297.529
  38103709.000       28404.850
			    4  4
          --> THIS IS THE START OF A NEW SITE <--           COMMENT             
4420  ____________ ____________                             MARKER NAME         
  5316306.4038  2391519.7032 -2582053.2841                  APPROX POSITION XYZ 
        0.0000        0.0000        0.0000                  ANTENNA: DELTA H/E/N
 93  5  1  6 59 10.0000000  0  6G 2G24G18G13G12G29
  41681844.000       35114.109
  40355796.000       30920.943
  41615928.000       31004.848
  39837006.000       30868.262
  42652672.000       32486.799
  42893506.000       32601.918
 93  5  1  6 59 11.0000000  0  6G 2G24G18G13G12G29
  41688519.000       35110.207
  40361676.500       30918.994
  41621827.500       31008.750
  39842880.000       30868.262
  42658854.000       32486.799
  42899710.000       32601.918
 93  5  1  6 59 12.0000000  0  7G 2G24G18G13G12G29G16
  41695206.000       35114.109
  40367560.250       30918.994
  41627728.250       31008.750
  39848768.000       30868.262
  42665020.000       32486.799
  42905900.000       32601.918
  41681066.000       28503.387
 93  5  1  6 59 13.0000000  0  7G 2G24G18G13G12G29G16
  41701883.000       35110.207
  40373446.500       30918.994
  41633639.000       31008.750
  39854637.000       30869.238
  42671211.000       32489.723
  42912108.500       32604.846
  41686468.500       28507.289
 93  5  1  6 59 14.0000000  0  7G 2G24G18G13G12G29G16
  41708564.250       35110.207
  40379330.250       30918.994
  41639531.750       31007.775
  39860515.750       30868.262
  42677404.000       32490.699
  42918300.000       32605.822
  41691893.250       28507.289
 93  5  1  6 59 15.0000000  0  7G 2G24G18G13G12G29G16
  41715239.000       35110.207
  40385215.000       30920.943
  41645430.750       31008.750
  39866395.250       30868.262
  42683586.750       32490.699
  42924504.750       32605.822
  41697345.000       28507.289
 93  5  1  6 59 16.0000000  0  7G 2G24G18G13G12G29G16
  41721922.750       35111.184
  40391099.000       30920.943
  41651331.500       31008.750
  39872269.250       30868.262
  42689745.500       32491.676
  42930736.000       32605.822
  41702769.750       28507.289
 93  5  1  6 59 17.0000000  0  7G 2G24G18G13G12G29G16
  41728604.250       35111.184
  40396989.000       30921.922
  41657242.750       31008.750
  39878133.750       30869.238
  42695942.500       32491.676
  42936940.750       32605.822
  41708194.500       28507.289
 93  5  1  6 59 18.0000000  0  6G 2G24G18G13G12G29
  41735285.750       35110.207
  40402860.750       30921.922
  41663139.000       31011.676
  39884008.000       30869.238
  42702125.500       32491.676
  42943139.500       32607.771
 93  5  1  6 59 19.0000000  0  6G 2G24G18G13G12G29
  41741967.000       35110.207
  40408745.000       30921.922
  41669040.250       31011.676
  39889903.750       30869.238
  42708290.000       32494.602
  42949326.000       32608.746
 93  5  1  6 59 20.0000000  0  6G 2G24G18G13G12G29
  41748637.750       35110.207
  40414637.750       30920.943
  41674942.000       31011.676
  39895764.500       30869.238
  42714473.500       32494.602
  42955531.250       32608.746
 93  5  1  6 59 21.0000000  0  6G 2G24G18G13G12G29
  41755327.000       35110.207
  40420522.250       30918.994
  41680843.250       31011.676
  39901638.750       30869.238
  42720671.000       32494.602
  42961744.500       32608.746
 93  5  1  6 59 22.0000000  0  6G 2G24G18G13G12G29
  41762008.250       35110.207
  40426406.000       30918.994
  41686747.500       31012.652
  39907514.500       30869.238
  42726850.500       32494.602
  42967963.250       32609.725
 93  5  1  6 59 23.0000000  0  6G 2G24G18G13G12G29
  41768691.500       35111.184
  40432288.750       30918.994
  41692645.000       31012.652
  39913389.250       30871.188
  42733044.500       32495.576
  42974149.250       32609.725
 93  5  1  6 59 25.0000000  0  6G 2G24G18G13G12G29
  41782054.500       35111.184
  40444056.750       30920.943
  41704449.000       31013.629
  39925144.750       30869.238
  42745401.000       32497.529
  42986563.750       32612.650
 93  5  1  6 59 26.0000000  0  6G 2G24G18G13G12G29
  41788745.500       35113.137
  40449936.250       30920.943
  41710353.250       31015.578
  39931008.000       30869.238
  42751585.000       32497.529
  42992769.750       32612.650
 93  5  1  6 59 27.0000000  0  6G 2G24G18G13G12G29
  41795436.250       35111.184
  40455828.250       30920.943
  41716255.250       31015.578
  39936882.250       30869.238
  42757779.500       32498.504
  42998975.750       32612.650
 93  5  1  6 59 28.0000000  0  6G 2G24G18G13G12G29
  41802113.250       35110.207
  40461701.750       30921.922
  41722155.250       31015.578
  39942749.000       30869.238
  42763954.750       32498.504
  43005191.250       32612.650
 93  5  1  6 59 29.0000000  0  6G 2G24G18G13G12G29
  41808794.500       35110.207
  40467586.000       30921.922
  41728057.250       31015.578
  39948628.250       30871.188
  42770159.000       32499.479
  43011392.250       32613.627
 93  5  1  6 59 30.0000000  0  6G 2G24G18G13G12G29
  41815468.750       35111.184
  40473476.750       30920.943
  41733956.750       31016.557
  39954516.750       30869.238
  42776343.500       32499.479
  43017598.500       32613.627
 93  5  1  6 59 31.0000000  0  6G 2G24G18G13G12G29
  41822151.250       35113.137
  40479360.750       30920.943
  41739859.000       31016.557
  39960391.000       30869.238
  42782515.500       32498.504
  43023795.250       32615.578
 93  5  1  6 59 32.0000000  0  6G 2G24G18G13G12G29
  41828833.000       35113.137
  40485240.750       30921.922
  41745763.750       31017.531
  39966254.250       30869.238
  42788696.750       32499.479
  43030001.750       32615.578
 93  5  1  6 59 33.0000000  0  6G 2G24G18G13G12G29
  41835517.750       35113.137
  40491137.500       30921.922
  41751666.250       31017.531
  39972128.500       30869.238
  42794881.250       32499.479
  43036216.250       32615.578
 93  5  1  6 59 34.0000000  0  6G 2G24G18G13G12G29
  41842199.500       35113.137
  40497021.750       30921.922
  41757567.750       31017.531
  39978003.250       30871.188
  42801075.750       32502.406
  43042436.250       32616.553
 93  5  1  6 59 35.0000000  0  6G 2G24G18G13G12G29
  41848876.750       35113.137
  40502895.000       30921.922
  41763469.750       31016.557
  39983877.750       30871.188
  42807260.750       32502.406
  43048643.000       32616.553
 93  5  1  6 59 36.0000000  0  6G 2G24G18G13G12G29
  41855552.500       35113.137
  40508786.250       30921.922
  41769369.000       31017.531
  39989745.750       30868.262
  42813442.250       32503.383
  43054841.750       32617.527
 93  5  1  6 59 37.0000000  0  6G 2G24G18G13G12G29
  41862236.750       35114.109
  40514666.500       30922.896
  41775276.000       31020.455
  39995619.750       30868.262
  42819627.500       32503.383
  43061048.750       32617.527
 93  5  1  6 59 38.0000000  0  6G 2G24G18G13G12G29
  41868922.750       35113.137
  40520551.000       30922.896
  41781179.000       31020.455
  40001498.750       30869.238
  42825814.750       32502.406
  43067251.250       32617.527
 93  5  1  6 59 39.0000000  0  6G 2G24G18G13G12G29
  41875604.500       35113.137
  40526438.000       30922.896
  41787081.500       31019.480
  40007370.500       30871.188
  42832010.250       32505.334
  43073458.250       32617.527
 93  5  1  6 59 40.0000000  0  6G 2G24G18G13G12G29
  41882286.250       35114.109
  40532322.500       30925.822
  41792984.250       31019.480
  40013245.000       30871.188
  42838195.750       32505.334
  43079674.250       32617.527
 93  5  1  6 59 41.0000000  0  6G 2G24G18G13G12G29
  41888968.250       35114.109
  40538207.500       30925.822
  41798888.000       31017.531
  40019109.500       30871.188
  42844357.750       32505.334
  43085869.250       32619.480
 93  5  1  6 59 42.0000000  0  6G 2G24G18G13G12G29
  41895649.750       35113.137
  40544090.500       30922.896
  41804796.000       31020.455
  40024992.000       30871.188
  42850543.250       32505.334
  43092076.500       32619.480
 93  5  1  6 59 43.0000000  0  6G 2G24G18G13G12G29
  41902334.500       35114.109
  40549975.000       30922.896
  41810699.000       31020.455
  40030866.500       30871.188
  42856741.250       32506.309
  43098297.750       32620.455
 93  5  1  6 59 44.0000000  0  6G 2G24G18G13G12G29
  41909016.500       35114.109
  40555860.000       30922.896
  41816597.500       31020.455
  40036733.000       30869.238
  42862925.000       32506.309
  43104502.250       32620.455
 93  5  1  6 59 45.0000000  0  6G 2G24G18G13G12G29
  41915702.000       35114.109
  40561748.000       30922.896
  41822499.000       31020.455
  40042607.250       30869.238
  42869110.750       32506.309
  43110709.750       32620.455
 93  5  1  6 59 46.0000000  0  6G 2G24G18G13G12G29
  41922384.000       35114.109
  40567632.500       30922.896
  41828402.000       31020.455
  40048492.000       30869.238
  42875289.000       32507.285
  43116914.250       32622.406
 93  5  1  6 59 47.0000000  0  6G 2G24G18G13G12G29
  41929059.500       35113.137
  40573512.000       30925.822
  41834304.000       31020.455
  40054374.250       30869.238
  42881475.000       32507.285
  43123122.000       32622.406
 93  5  1  6 59 48.0000000  0  6G 2G24G18G13G12G29
  41935737.250       35114.109
  40579399.500       30924.848
  41840207.000       31020.455
  40060248.500       30869.238
  42887667.000       32509.234
  43129323.250       32623.383
 93  5  1  6 59 49.0000000  0  6G 2G24G18G13G12G29
  41942419.250       35114.109
  40585284.250       30924.848
  41846109.500       31021.434
  40066105.250       30871.188
  42893861.250       32510.213
  43135542.250       32623.383
 93  5  1  6 59 50.0000000  0  6G 2G24G18G13G12G29
  41949102.250       35114.109
  40591171.000       30925.822
  41852007.250       31020.455
  40071981.750       30869.238
  42900043.250       32511.188
  43141750.250       32623.383
 93  5  1  6 59 51.0000000  0  6G 2G24G18G13G12G29
  41955778.750       35114.109
  40597053.000       30924.848
  41857910.250       31020.455
  40077856.000       30869.238
  42906230.000       32511.188
  43147951.750       32624.357
 93  5  1  6 59 52.0000000  0  6G 2G24G18G13G12G29
  41962460.750       35114.109
  40602937.750       30924.848
  41863823.750       31024.359
  40083745.250       30872.166
  42912412.250       32510.213
  43154161.500       32626.309
 93  5  1  6 59 53.0000000  0  6G 2G24G18G13G12G29
  41969145.250       35114.109
  40608814.500       30925.822
  41869726.000       31023.383
  40089612.000       30871.188
  42918598.750       32510.213
  43160370.000       32626.309
 93  5  1  6 59 54.0000000  0  6G 2G24G18G13G12G29
  41975829.750       35114.109
  40614707.500       30925.822
  41875622.000       31024.359
  40095486.500       30871.188
  42924785.250       32514.115
  43166576.500       32627.285
 93  5  1  6 59 56.0000000  0  6G 2G24G18G13G12G29
  41989195.750       35113.137
  40626474.500       30924.848
  41887437.000       31024.359
  40107234.500       30869.238
  42937172.250       32514.115
  43178994.000       32627.285
 93  5  1  6 59 57.0000000  0  6G 2G24G18G13G12G29
  41995875.500       35114.109
  40632357.250       30925.822
  41893346.250       31027.287
  40113108.750       30869.238
  42943359.500       32514.115
  43185199.250       32627.285
 93  5  1  6 59 58.0000000  0  6G 2G24G18G13G12G29
  42002564.000       35114.109
  40638242.250       30925.822
  41899250.500       31027.287
  40118979.000       30871.188
  42949535.250       32515.090
  43191410.000       32628.262
 93  5  1  6 59 59.0000000  0  6G 2G24G18G13G12G29
  42009246.000       35114.109
  40644131.250       30925.822
  41905156.250       31028.262
  40124853.500       30871.188
  42955717.250       32514.115
  43197619.000       32628.262
 93  5  1  7  0  0.0000000  0  6G 2G24G18G13G12G29
  42015916.000       35114.109
  40650015.250       30925.822
  41911060.750       31028.262
  40130728.000       30871.188
  42961904.500       32514.115
  43203828.000       32628.262
 93  5  1  7  0  1.0000000  0  6G 2G24G18G13G12G29
  42022598.000       35114.109
  40655900.250       30925.822
  41916957.250       31027.287
  40136611.500       30869.238
  42968101.750       32517.041
  43210035.000       32630.211
 93  5  1  7  0  2.0000000  0  6G 2G24G18G13G12G29
  42029289.000       35114.109
  40661785.750       30925.822
  41922873.500       31028.262
  40142473.750       30871.188
  42974285.000       32517.041
  43216254.750       32631.186
 93  5  1  7  0  3.0000000  0  6G 2G24G18G13G12G29
  42035971.000       35114.109
  40667670.750       30925.822
  41928768.500       31028.262
  40148361.250       30869.238
  42980486.250       32518.016
  43222464.750       32631.186
 93  5  1  7  0  4.0000000  0  7G 2G24G18G13G12G29G16
  42042654.000       35114.109
  40673555.750       30925.822
  41934670.500       31028.262
  40154235.500       30869.238
  42986674.250       32518.016
  43228674.250       32631.186
  41963199.250       28515.096
 93  5  1  7  0  5.0000000  0  7G 2G24G18G13G12G29G16
  42049328.000       35114.109
  40679440.750       30925.822
  41940575.000       31028.262
  40160097.250       30869.238
  42992849.250       32518.016
  43234886.750       32632.164
  41968625.500       28515.096
 93  5  1  7  0  6.0000000  0  7G 2G24G18G13G12G29G16
  42056010.000       35114.109
  40685329.750       30926.799
  41946477.000       31028.262
  40165971.500       30871.188
  42999045.750       32520.943
  43241096.500       32632.164
  41974051.750       28515.096
 93  5  1  7  0  7.0000000  0  6G 2G24G18G13G12G29
  42062693.500       35115.090
  40691208.500       30926.799
  41952381.500       31028.262
  40171846.000       30871.188
  43005234.250       32520.943
  43247296.750       32631.186
 93  5  1  7  0  8.0000000  0  7G 2G24G18G13G12G29G16
  42069375.750       35115.090
  40697093.750       30926.799
  41958288.500       31029.236
  40177726.500       30869.238
  43011419.750       32518.016
  43253508.750       32634.113
  41984911.250       28518.020
 93  5  1  7  0  9.0000000  0  7G 2G24G18G13G12G29G16
  42076068.000       35114.109
  40702978.500       30926.799
  41964197.250       31028.262
  40183619.250       30871.188
  43017607.750       32518.016
  43259718.750       32634.113
  41990338.000       28518.020
 93  5  1  7  0 10.0000000  0  7G 2G24G18G13G12G29G16
  42082746.500       35114.109
  40708863.750       30926.799
  41970101.750       31028.262
  40189493.750       30871.188
  43023799.750       32520.943
  43265930.250       32634.113
  41995764.750       28518.020
 93  5  1  7  0 11.0000000  0  6G 2G24G18G13G12G29
  42089428.500       35114.109
  40714758.000       30926.799
  41976012.250       31029.236
  40195359.250       30871.188
  43029984.250       32520.943
  43272140.250       32635.088
 93  5  1  7  0 12.0000000  0  6G 2G24G18G13G12G29
  42096113.000       35114.109
  40720635.750       30929.725
  41981907.000       31032.164
  40201232.750       30871.188
  43036172.750       32520.943
  43278350.500       32635.088
 93  5  1  7  0 13.0000000  0  7G 2G24G18G13G12G29G16
  42102791.000       35115.090
  40726521.500       30929.725
  41987812.250       31032.164
  40207107.250       30871.188
  43042360.250       32521.918
  43284565.750       32635.088
  42012048.500       28516.070
 93  5  1  7  0 14.0000000  0  7G 2G24G18G13G12G29G16
  42109473.250       35115.090
  40732407.750       30928.750
  41993723.500       31032.164
  40212981.750       30872.166
  43048539.000       32524.846
  43290776.000       32635.088
  42017475.000       28516.070
 93  5  1  7  0 15.0000000  0  7G 2G24G18G13G12G29G16
  42116149.500       35114.109
  40738295.250       30928.750
  41999627.250       31032.164
  40218856.500       30872.166
  43054728.250       32524.846
  43296980.750       32635.088
  42022901.500       28516.070
 93  5  1  7  0 16.0000000  0  7G 2G24G18G13G12G29G16
  42122831.500       35114.109
  40744180.750       30928.750
  42005532.500       31032.164
  40224719.250       30871.188
  43060922.000       32524.846
  43303194.000       32638.016
  42028338.000       28518.020
 93  5  1  7  0 17.0000000  0  7G 2G24G18G13G12G29G16
  42129509.000       35114.109
  40750068.750       30929.725
  42011437.750       31032.164
  40230591.250       30872.166
  43067118.750       32524.846
  43309402.750       32638.016
  42033764.750       28518.020
 93  5  1  7  0 18.0000000  0  7G 2G24G18G13G12G29G16
  42136191.000       35114.109
  40755954.500       30929.725
  42017346.500       31033.139
  40236471.000       30871.188
  43073301.500       32525.820
  43315617.000       32638.992
  42039191.500       28518.020
 93  5  1  7  0 19.0000000  0  6G 2G24G18G13G12G29
  42142882.500       35115.090
  40761843.250       30928.750
  42023248.000       31033.139
  40242329.500       30871.188
  43079491.000       32525.820
  43321828.000       32638.992
 93  5  1  7  0 20.0000000  0  7G 2G24G18G13G12G29G16
  42149566.250       35115.090
  40767728.750       30928.750
  42029153.500       31033.139
  40248204.000       30871.188
  43085692.500       32525.820
  43328036.000       32638.992
  42050052.000       28518.994
 93  5  1  7  0 21.0000000  0  7G 2G24G18G13G12G29G16
  42156248.500       35115.090
  40773608.250       30928.750
  42035058.500       31033.139
  40254092.500       30871.188
  43091869.000       32527.773
  43334247.000       32638.992
  42055479.000       28518.994
 93  5  1  7  0 22.0000000  0  7G 2G24G18G13G12G29G16
  42162923.250       35114.109
  40779498.250       30929.725
  42040970.000       31035.092
  40259967.000       30871.188
  43098058.750       32527.773
  43340459.500       32638.992
  42060907.000       28518.994
 93  5  1  7  0 23.0000000  0  7G 2G24G18G13G12G29G16
  42169605.250       35114.109
  40785384.000       30929.725
  42046875.750       31035.092
  40265846.500       30872.166
  43104245.000       32528.748
  43346671.000       32639.967
  42066334.000       28518.994
 93  5  1  7  0 24.0000000  0  7G 2G24G18G13G12G29G16
  42176289.250       35114.109
  40791273.750       30929.725
  42052782.000       31035.092
  40271739.750       30871.188
  43110435.000       32528.748
  43352882.250       32639.967
  42071761.000       28518.994
 93  5  1  7  0 25.0000000  0  6G 2G24G18G13G12G29
  42182972.250       35114.109
  40797159.500       30929.725
  42058687.750       31035.092
  40277614.250       30871.188
  43116635.500       32528.748
  43359088.000       32641.920
 93  5  1  7  0 26.0000000  0  6G 2G24G18G13G12G29
  42189654.250       35114.109
  40803034.750       30929.725
  42064589.000       31035.092
  40283459.250       30869.238
  43122829.000       32528.748
  43365302.000       32641.920
 93  5  1  7  0 27.0000000  0  6G 2G24G18G13G12G29
  42196338.750       35114.109
  40808925.500       30928.750
  42070488.750       31036.066
  40289350.500       30871.188
  43129019.000       32528.748
  43371513.500       32641.920
 93  5  1  7  0 28.0000000  0  6G 2G24G18G13G12G29
  42203024.250       35115.090
  40814811.000       30928.750
  42076394.750       31036.066
  40295225.000       30871.188
  43135203.500       32531.674
  43377722.000       32642.895
 93  5  1  7  0 29.0000000  0  6G 2G24G18G13G12G29
  42209706.500       35115.090
  40820698.500       30929.725
  42082305.250       31038.992
  40301097.500       30872.166
  43141386.500       32532.652
  43383938.250       32642.895
 93  5  1  7  0 30.0000000  0  6G 2G24G18G13G12G29
  42216386.250       35115.090
  40826578.750       30930.703
  42088205.750       31038.992
  40306975.250       30871.188
  43147577.250       32532.652
  43390150.000       32642.895
 93  5  1  7  0 31.0000000  0  6G 2G24G18G13G12G29
  42223074.500       35114.109
  40832464.750       30930.703
  42094112.250       31038.992
  40312849.750       30871.188
  43153777.000       32532.652
  43396359.250       32645.822
 93  5  1  7  0 32.0000000  0  6G 2G24G18G13G12G29
  42229755.500       35115.090
  40838349.250       30930.703
  42100020.250       31038.992
  40318724.750       30872.166
  43159968.250       32532.652
  43402581.500       32645.822
 93  5  1  7  0 33.0000000  0  6G 2G24G18G13G12G29
  42236437.750       35115.090
  40844235.250       30930.703
  42105926.750       31038.992
  40324597.000       30872.166
  43166152.000       32532.652
  43408793.250       32646.797
 93  5  1  7  0 34.0000000  0  6G 2G24G18G13G12G29
  42243114.000       35115.090
  40850127.250       30930.703
  42111837.250       31039.971
  40330473.750       30871.188
  43172353.250       32533.627
  43415005.750       32646.797
 93  5  1  7  0 35.0000000  0  6G 2G24G18G13G12G29
  42249793.750       35115.090
  40856012.250       30932.652
  42117744.000       31039.971
  40336348.250       30871.188
  43178544.250       32533.627
  43421207.750       32646.797
 93  5  1  7  0 36.0000000  0  6G 2G24G18G13G12G29
  42256476.000       35115.090
  40861898.500       30932.652
  42123656.250       31041.920
  40342222.250       30872.166
  43184723.250       32536.555
  43427422.750       32646.797
 93  5  1  7  0 37.0000000  0  6G 2G24G18G13G12G29
  42263157.750       35114.109
  40867784.250       30932.652
  42129563.250       31039.971
  40348094.000       30873.141
  43190914.750       32536.555
  43433635.250       32646.797
 93  5  1  7  0 38.0000000  0  7G 2G24G18G13G12G29G16
  42269836.750       35114.109
  40873670.500       30932.652
  42135470.000       31039.971
  40353969.000       30873.141
  43197111.750       32536.555
  43439844.750       32647.771
  42147767.500       28519.973
 93  5  1  7  0 39.0000000  0  7G 2G24G18G13G12G29G16
  42276518.750       35114.109
  40879556.750       30932.652
  42141368.250       31038.992
  40359845.000       30871.188
  43203304.250       32536.555
  43446052.500       32650.699
  42153194.750       28519.973
 93  5  1  7  0 40.0000000  0  7G 2G24G18G13G12G29G16
  42283210.250       35114.109
  40885439.500       30932.652
  42147278.750       31039.971
  40365727.000       30873.141
  43209495.750       32536.555
  43452265.750       32650.699
  42158592.000       28522.898
 93  5  1  7  0 41.0000000  0  7G 2G24G18G13G12G29G16
  42289889.750       35115.090
  40891325.750       30932.652
  42153185.500       31039.971
  40371602.000       30873.141
  43215680.250       32537.529
  43458491.000       32649.725
  42164009.250       28522.898
 93  5  1  7  0 42.0000000  0  7G 2G24G18G13G12G29G16
  42296572.000       35115.090
  40897211.500       30930.703
  42159094.750       31042.895
  40377469.500       30872.166
  43221880.000       32540.455
  43464704.000       32649.725
  42169437.000       28522.898
 93  5  1  7  0 43.0000000  0  7G 2G24G18G13G12G29G16
  42303253.250       35117.039
  40903103.500       30932.652
  42164994.000       31042.895
  40383344.250       30872.166
  43228072.250       32540.455
  43470916.500       32650.699
  42174864.750       28522.898
 93  5  1  7  0 44.0000000  0  6G 2G24G18G13G12G29
  42309935.750       35117.039
  40908989.750       30932.652
  42170901.250       31042.895
  40389219.000       30872.166
  43234266.500       32540.455
  43477124.750       32650.699
 93  5  1  7  0 45.0000000  0  6G 2G24G18G13G12G29
  42316630.250       35115.090
  40914876.000       30932.652
  42176810.000       31042.895
  40395088.750       30872.166
  43240458.750       32540.455
  43483338.000       32650.699
 93  5  1  7  0 46.0000000  0  6G 2G24G18G13G12G29
  42323299.500       35117.039
  40920759.750       30932.652
  42182717.250       31042.895
  40400963.500       30872.166
  43246660.000       32540.455
  43489567.750       32650.699
 93  5  1  7  0 47.0000000  0  6G 2G24G18G13G12G29
  42329987.000       35114.109
  40926646.000       30933.627
  42188631.000       31042.895
  40406859.750       30872.166
  43252843.750       32541.432
  43495779.000       32652.650
 93  5  1  7  0 48.0000000  0  6G 2G24G18G13G12G29
  42336669.000       35114.109
  40932532.500       30933.627
  42194538.250       31042.895
  40412708.000       30871.188
  43259028.750       32540.455
  43501980.500       32653.625
 93  5  1  7  0 49.0000000  0  6G 2G24G18G13G12G29
  42343350.000       35115.090
  40938419.500       30933.627
  42200440.500       31042.895
  40418603.000       30872.166
  43265221.000       32540.455
  43508194.250       32653.625
 93  5  1  7  0 50.0000000  0  6G 2G24G18G13G12G29
  42350035.750       35115.090
  40944306.000       30933.627
  42206347.750       31042.895
  40424477.750       30872.166
  43271427.750       32544.357
  43514406.500       32654.604
 93  5  1  7  0 51.0000000  0  6G 2G24G18G13G12G29
  42356718.000       35115.090
  40950193.000       30933.627
  42212264.500       31046.799
  40430366.000       30872.166
  43277611.750       32544.357
  43520624.500       32654.604
 93  5  1  7  0 52.0000000  0  6G 2G24G18G13G12G29
  42363402.250       35115.090
  40956075.000       30933.627
  42218171.000       31045.822
  40436240.750       30872.166
  43283804.750       32544.357
  43526838.500       32654.604
 93  5  1  7  0 53.0000000  0  6G 2G24G18G13G12G29
  42370084.500       35115.090
  40961961.500       30933.627
  42224078.750       31045.822
  40442101.000       30872.166
  43290010.750       32544.357
  43533056.500       32656.553
 93  5  1  7  0 54.0000000  0  6G 2G24G18G13G12G29
  42376760.750       35115.090
  40967844.500       30933.627
  42229982.500       31045.822
  40447964.250       30872.166
  43296197.250       32545.332
  43539270.750       32656.553
 93  5  1  7  0 55.0000000  0  6G 2G24G18G13G12G29
  42383438.000       35115.090
  40973737.000       30933.627
  42235888.250       31046.799
  40453839.000       30872.166
  43302390.500       32545.332
  43545487.000       32656.553
 93  5  1  7  0 56.0000000  0  6G 2G24G18G13G12G29
  42390120.250       35115.090
  40979623.500       30933.627
  42241796.250       31046.799
  40459719.750       30872.166
  43308577.250       32547.285
  43551702.250       32657.527
 93  5  1  7  0 57.0000000  0  6G 2G24G18G13G12G29
  42396807.000       35118.012
  40985507.500       30934.602
  42247714.250       31046.799
  40465596.500       30873.141
  43314770.750       32547.285
  43557916.750       32657.527
 93  5  1  7  0 58.0000000  0  6G 2G24G18G13G12G29
  42403489.750       35115.090
  40991388.250       30933.627
  42253622.250       31046.799
  40471471.500       30873.141
  43320969.750       32547.285
  43564120.750       32658.502
 93  5  1  7  0 59.0000000  0  6G 2G24G18G13G12G29
  42410172.000       35115.090
  40997274.750       30933.627
  42259526.750       31047.773
  40477336.000       30872.166
  43327141.250       32547.285
  43570335.000       32660.455
 93  5  1  7  1  0.0000000  0  6G 2G24G18G13G12G29
  42416847.750       35117.039
  41003168.250       30933.627
  42265434.500       31049.727
  40483210.750       30872.166
  43333334.750       32547.285
  43576550.000       32660.455
                            4  4                                                
          --> THIS IS THE START OF A NEW SITE <--           COMMENT             
4421  ____________ ____________                             MARKER NAME         
  5319177.3184  2392829.9746 -2575190.6270                  APPROX POSITION XYZ 
        0.0000        0.0000        0.0000                  ANTENNA: DELTA H/E/N
 93  5  1  7  7 55.0000000  0  7G 2G24G18G13G12G29G16
  45184410.000       35145.332
  43451564.000       31004.848
  44723868.000       31236.066
  42927506.000       30910.213
  45914838.000       32780.453
  46168494.000       32885.820
  44518722.000       28650.705
 93  5  1  7  7 56.0000000  0  7G 2G24G18G13G12G29G16
  45191097.500       35148.258
  43457464.000       31004.848
  44729812.000       31236.066
  42933388.000       30910.213
  45921076.500       32779.480
  46174754.500       32888.746
  44524175.500       28647.777
 93  5  1  7  7 57.0000000  0  7G 2G24G18G13G12G29G16
  45197792.500       35148.258
  43463374.500       31004.848
  44735753.000       31237.041
  42939283.500       30913.141
  45927306.250       32780.453
  46181012.000       32888.746
  44529634.500       28648.752
 93  5  1  7  7 58.0000000  0  7G 2G24G18G13G12G29G16
  45204481.000       35148.258
  43469274.500       31004.848
  44741697.250       31237.041
  42945161.000       30911.188
  45933552.250       32783.383
  46187276.000       32889.723
  44535079.250       28650.705
 93  5  1  7  7 59.0000000  0  7G 2G24G18G13G12G29G16
  45211160.500       35148.258
  43475170.000       31004.848
  44747644.500       31237.041
  42951043.250       30913.141
  45939790.750       32783.383
  46193534.750       32889.723
  44540531.250       28650.705
 93  5  1  7  8  0.0000000  0  7G 2G24G18G13G12G29G16
  45217860.500       35148.258
  43481075.000       31007.775
  44753588.750       31237.041
  42956925.750       30913.141
  45946029.750       32783.383
  46199794.500       32889.723
  44545989.750       28650.705
 93  5  1  7  8  1.0000000  0  7G 2G24G18G13G12G29G16
  45224549.000       35148.258
  43486975.500       31007.775
  44759533.500       31237.041
  42962804.750       30914.115
  45952270.750       32783.383
  46206056.750       32892.648
  44551439.750       28651.680
 93  5  1  7  8  2.0000000  0  7G 2G24G18G13G12G29G16
  45231229.500       35148.258
  43492871.500       31004.848
  44765484.750       31239.969
  42968686.500       30913.141
  45958509.250       32783.383
  46212316.000       32892.648
  44556892.000       28651.680
 93  5  1  7  8  3.0000000  0  7G 2G24G18G13G12G29G16
  45237920.500       35148.258
  43498771.500       31004.848
  44771429.500       31239.969
  42974569.000       30913.141
  45964742.250       32786.309
  46218555.750       32892.648
  44562325.250       28650.705
 93  5  1  7  8  4.0000000  0  7G 2G24G18G13G12G29G16
  45244609.000       35148.258
  43504668.500       31007.775
  44777375.250       31238.994
  42980460.000       30911.188
  45970990.750       32786.309
  46224815.000       32892.648
  44567777.250       28650.705
 93  5  1  7  8  5.0000000  0  7G 2G24G18G13G12G29G16
  45251300.000       35148.258
  43510581.500       31007.775
  44783319.750       31238.994
  42986342.250       30911.188
  45977229.750       32786.309
  46231092.750       32892.648
  44573246.250       28651.680
 93  5  1  7  8  6.0000000  0  7G 2G24G18G13G12G29G16
  45257988.500       35148.258
  43516482.000       31007.775
  44789259.250       31238.994
  42992224.000       30914.115
  45983463.750       32787.285
  46237345.000       32893.625
  44578699.500       28651.680
 93  5  1  7  8  7.0000000  0  7G 2G24G18G13G12G29G16
  45264676.000       35149.234
  43522373.000       31008.750
  44795206.250       31242.896
  42998108.750       30913.141
  45989703.000       32787.285
  46243604.500       32893.625
  44584151.750       28651.680
 93  5  1  7  8  8.0000000  0  7G 2G24G18G13G12G29G16
  45271364.250       35148.258
  43528275.750       31008.750
  44801151.500       31242.896
  43003991.250       30913.141
  45995943.250       32787.285
  46249867.500       32893.625
  44589611.000       28651.680
 93  5  1  7  8  9.0000000  0  7G 2G24G18G13G12G29G16
  45278052.750       35148.258
  43534176.500       31008.750
  44807094.250       31239.969
  43009872.250       30913.141
  46002184.000       32789.234
  46256119.000       32896.551
  44595063.250       28651.680
 93  5  1  7  8 11.0000000  0  7G 2G24G18G13G12G29G16
  45291423.750       35148.258
  43545976.500       31008.750
  44818988.250       31240.943
  43021630.250       30913.141
  46014664.000       32790.211
  46268643.500       32895.578
  44605961.250       28651.680
 93  5  1  7  8 12.0000000  0  7G 2G24G18G13G12G29G16
  45298119.750       35148.258
  43551874.250       31008.750
  44824922.250       31243.871
  43027516.750       30911.188
  46020904.750       32790.211
  46274915.750       32897.527
  44611417.500       28652.654
 93  5  1  7  8 13.0000000  0  7G 2G24G18G13G12G29G16
  45304808.250       35148.258
  43557775.000       31008.750
  44830867.750       31243.871
  43033404.500       30913.141
  46027148.500       32790.211
  46281157.500       32896.551
  44616869.000       28654.605
 93  5  1  7  8 14.0000000  0  7G 2G24G18G13G12G29G16
  45311484.750       35148.258
  43563675.750       31009.725
  44836824.750       31244.848
  43039284.500       30918.020
  46033388.250       32790.211
  46287417.500       32896.551
  44622321.750       28654.605
 93  5  1  7  8 15.0000000  0  7G 2G24G18G13G12G29G16
  45318182.250       35149.234
  43569576.750       31009.725
  44842770.500       31244.848
  43045168.000       30918.020
  46039625.500       32791.188
  46293695.500       32899.480
  44627768.500       28652.654
 93  5  1  7  8 16.0000000  0  7G 2G24G18G13G12G29G16
  45324871.000       35149.234
  43575478.250       31008.750
  44848697.750       31243.871
  43051048.500       30915.092
  46045866.500       32791.188
  46299948.000       32900.457
  44633221.000       28652.654
 93  5  1  7  8 17.0000000  0  7G 2G24G18G13G12G29G16
  45331568.750       35148.258
  43581374.500       31009.725
  44854649.250       31243.871
  43056931.000       30914.115
  46052100.000       32793.137
  46306208.750       32900.457
  44638679.500       28655.582
 93  5  1  7  8 18.0000000  0  7G 2G24G18G13G12G29G16
  45338242.250       35148.258
  43587272.500       31009.725
  44860594.750       31243.871
  43062813.750       30914.115
  46058340.250       32793.137
  46312472.000       32900.457
  44644136.000       28654.605
 93  5  1  7  8 19.0000000  0  7G 2G24G18G13G12G29G16
  45344930.750       35148.258
  43593173.500       31009.725
  44866542.750       31247.775
  43068698.000       30914.115
  46064576.500       32793.137
  46318732.250       32900.457
  44649588.750       28654.605
 93  5  1  7  8 20.0000000  0  7G 2G24G18G13G12G29G16
  45351639.750       35151.188
  43599083.000       31009.725
  44872501.000       31246.797
  43074588.250       30917.043
  46070816.750       32793.137
  46324993.000       32900.457
  44655035.500       28655.582
 93  5  1  7  8 21.0000000  0  7G 2G24G18G13G12G29G16
  45358316.250       35148.258
  43604984.000       31009.725
  44878447.000       31246.797
  43080471.500       30917.043
  46077069.000       32794.113
  46331246.750       32901.430
  44660484.500       28655.582
 93  5  1  7  8 22.0000000  0  7G 2G24G18G13G12G29G16
  45365004.750       35148.258
  43610884.500       31008.750
  44884382.000       31247.775
  43086345.250       30914.115
  46083299.500       32797.039
  46337507.750       32901.430
  44665937.500       28655.582
 93  5  1  7  8 23.0000000  0  7G 2G24G18G13G12G29G16
  45371700.750       35148.258
  43616787.250       31009.725
  44890328.250       31247.775
  43092228.000       30914.115
  46089540.500       32797.039
  46343773.250       32904.359
  44671402.500       28655.582
 93  5  1  7  8 24.0000000  0  7G 2G24G18G13G12G29G16
  45378389.250       35148.258
  43622688.250       31009.725
  44896283.000       31247.775
  43098113.250       30917.043
  46095787.500       32797.039
  46350028.750       32904.359
  44676851.000       28655.582
 93  5  1  7  8 25.0000000  0  7G 2G24G18G13G12G29G16
  45385071.750       35149.234
  43628592.250       31008.750
  44902225.250       31247.775
  43104000.000       30914.115
  46102023.000       32797.039
  46356290.250       32904.359
  44682304.000       28655.582
 93  5  1  7  8 26.0000000  0  7G 2G24G18G13G12G29G16
  45391761.500       35149.234
  43634484.500       31009.725
  44908171.500       31247.775
  43109882.750       30914.115
  46108264.000       32797.039
  46362558.750       32904.359
  44687751.000       28655.582
 93  5  1  7  8 27.0000000  0  7G 2G24G18G13G12G29G16
  45398450.250       35149.234
  43640385.500       31009.725
  44914111.250       31248.750
  43115768.000       30914.115
  46114505.500       32798.016
  46368815.750       32904.359
  44693204.000       28655.582
 93  5  1  7  8 28.0000000  0  7G 2G24G18G13G12G29G16
  45405137.500       35148.258
  43646289.500       31011.676
  44920057.750       31248.750
  43121646.750       30914.115
  46120754.250       32798.016
  46375084.750       32907.281
  44698660.500       28655.582
 93  5  1  7  8 29.0000000  0  7G 2G24G18G13G12G29G16
  45411817.000       35148.258
  43652196.750       31011.676
  44926010.250       31247.775
  43127529.500       30914.115
  46126995.500       32798.016
  46381346.750       32907.281
  44704119.000       28656.557
 93  5  1  7  8 30.0000000  0  7G 2G24G18G13G12G29G16
  45418509.500       35151.188
  43658098.000       31011.676
  44931956.500       31247.775
  43133405.250       30915.092
  46133228.750       32798.016
  46387595.250       32908.262
  44709567.250       28658.508
 93  5  1  7  8 31.0000000  0  7G 2G24G18G13G12G29G16
  45425198.500       35151.188
  43663993.750       31011.676
  44937898.750       31248.750
  43139289.750       30915.092
  46139475.000       32800.941
  46393860.500       32907.281
  44715020.750       28658.508
 93  5  1  7  8 32.0000000  0  7G 2G24G18G13G12G29G16
  45431894.000       35149.234
  43669891.500       31012.652
  44943845.250       31251.676
  43145172.750       30915.092
  46145716.750       32800.941
  46400122.500       32907.281
  44720466.750       28658.508
 93  5  1  7  8 33.0000000  0  7G 2G24G18G13G12G29G16
  45438582.750       35149.234
  43675793.000       31012.652
  44949792.250       31251.676
  43151052.250       30914.115
  46151961.000       32800.941
  46406395.500       32911.188
  44725929.250       28658.508
 93  5  1  7  8 34.0000000  0  7G 2G24G18G13G12G29G16
  45445265.500       35148.258
  43681688.500       31011.676
  44955742.750       31251.676
  43156943.000       30917.043
  46158197.750       32801.918
  46412658.250       32911.188
  44731382.750       28658.508
 93  5  1  7  8 35.0000000  0  7G 2G24G18G13G12G29G16
  45451953.000       35149.234
  43687597.250       31011.676
  44961689.750       31251.676
  43162826.250       30917.043
  46164439.750       32801.918
  46418911.500       32908.262
  44736830.750       28659.482
 93  5  1  7  8 36.0000000  0  7G 2G24G18G13G12G29G16
  45458643.250       35149.234
  43693505.500       31011.676
  44967638.750       31254.604
  43168705.000       30918.020
  46170691.250       32801.918
  46425171.750       32911.188
  44742289.500       28659.482
 93  5  1  7  8 37.0000000  0  7G 2G24G18G13G12G29G16
  45465316.500       35148.258
  43699402.250       31012.652
  44973586.250       31254.604
  43174588.500       30918.020
  46176926.750       32804.848
  46431442.500       32912.164
  44747735.250       28659.482
 93  5  1  7  8 38.0000000  0  7G 2G24G18G13G12G29G16
  45472005.000       35148.258
  43705303.750       31012.652
  44979534.250       31252.652
  43180470.500       30917.043
  46183170.750       32802.895
  46437704.500       32912.164
  44753189.000       28659.482
 93  5  1  7  8 39.0000000  0  7G 2G24G18G13G12G29G16
  45478710.000       35151.188
  43711208.750       31013.629
  44985483.500       31256.555
  43186356.750       30915.092
  46189413.000       32802.895
  46443967.500       32912.164
  44758642.250       28659.482
 93  5  1  7  8 40.0000000  0  7G 2G24G18G13G12G29G16
  45485396.000       35149.234
  43717101.500       31012.652
  44991431.500       31256.555
  43192239.750       30915.092
  46195650.750       32804.848
  46450221.500       32912.164
  44764099.000       28662.410
 93  5  1  7  8 41.0000000  0  7G 2G24G18G13G12G29G16
  45492084.750       35149.234
  43723003.000       31012.652
  44997376.500       31255.578
  43198124.250       30917.043
  46201899.250       32805.820
  46456482.000       32912.164
  44769553.250       28662.410
 93  5  1  7  8 42.0000000  0  7G 2G24G18G13G12G29G16
  45498781.500       35148.258
  43728905.500       31013.629
  45003320.250       31256.555
  43204007.500       30917.043
  46208142.000       32805.820
  46462745.000       32912.164
  44775022.500       28662.410
 93  5  1  7  8 43.0000000  0  7G 2G24G18G13G12G29G16
  45505459.500       35148.258
  43734807.250       31013.629
  45009268.250       31256.555
  43209892.250       30915.092
  46214382.250       32805.820
  46469014.000       32916.062
  44780473.250       28662.410
 93  5  1  7  8 44.0000000  0  7G 2G24G18G13G12G29G16
  45512148.000       35148.258
  43740714.500       31013.629
  45015219.750       31258.506
  43215776.750       30918.020
  46220629.000       32805.820
  46475277.750       32916.062
  44785927.500       28662.410
 93  5  1  7  8 45.0000000  0  7G 2G24G18G13G12G29G16
  45518836.000       35149.234
  43746615.250       31013.629
  45021168.000       31258.506
  43221660.250       30918.020
  46226871.750       32805.820
  46481548.500       32915.090
  44791371.250       28662.410
 93  5  1  7  8 46.0000000  0  7G 2G24G18G13G12G29G16
  45525524.750       35149.234
  43752517.000       31013.629
  45027116.250       31258.506
  43227537.250       30918.020
  46233117.500       32806.797
  46487814.500       32916.062
  44796825.000       28662.410
 93  5  1  7  8 47.0000000  0  7G 2G24G18G13G12G29G16
  45532214.500       35151.188
  43758420.250       31012.652
  45033065.500       31256.555
  43233422.250       30918.020
  46239360.500       32806.797
  46494078.250       32916.062
  44802279.250       28662.410
 93  5  1  7  8 48.0000000  0  7G 2G24G18G13G12G29G16
  45538899.500       35148.258
  43764321.750       31012.652
  45039013.500       31256.555
  43239305.750       30918.020
  46245603.000       32808.750
  46500335.500       32918.016
  44807751.500       28662.410
 93  5  1  7  8 49.0000000  0  7G 2G24G18G13G12G29G16
  45545588.000       35148.258
  43770228.250       31013.629
  45044973.000       31259.480
  43245197.250       30918.994
  46251836.250       32809.723
  46506617.000       32916.062
  44813205.750       28662.410
 93  5  1  7  8 50.0000000  0  7G 2G24G18G13G12G29G16
  45552291.000       35149.234
  43776137.000       31015.578
  45050911.500       31259.480
  43251081.000       30918.994
  46258079.750       32809.723
  46512880.750       32916.062
  44818649.000       28662.410
 93  5  1  7  8 51.0000000  0  7G 2G24G18G13G12G29G16
  45558978.250       35152.160
  43782029.000       31016.557
  45056863.500       31262.408
  43256956.750       30918.020
  46264335.750       32813.625
  46519133.500       32918.016
  44824101.750       28663.385
 93  5  1  7  8 52.0000000  0  7G 2G24G18G13G12G29G16
  45565668.000       35151.188
  43787924.250       31016.557
  45062812.500       31262.408
  43262840.250       30918.020
  46270580.000       32813.625
  46525398.500       32918.992
  44829556.750       28665.338
 93  5  1  7  8 53.0000000  0  7G 2G24G18G13G12G29G16
  45572357.000       35151.188
  43793826.500       31016.557
  45068759.500       31260.455
  43268727.250       30918.020
  46276816.750       32810.699
  46531665.750       32919.965
  44835011.500       28665.338
 93  5  1  7  8 54.0000000  0  7G 2G24G18G13G12G29G16
  45579038.000       35151.188
  43799728.250       31013.629
  45074707.250       31259.480
  43274610.750       30918.020
  46283060.500       32810.699
  46537930.250       32919.965
  44840462.250       28663.385
 93  5  1  7  8 55.0000000  0  7G 2G24G18G13G12G29G16
  45585727.000       35151.188
  43805630.000       31013.629
  45080655.750       31259.480
  43280482.250       30920.943
  46289303.750       32813.625
  46544185.750       32921.918
  44845919.750       28666.312
 93  5  1  7  8 56.0000000  0  7G 2G24G18G13G12G29G16
  45592416.000       35151.188
  43811526.250       31015.578
  45086610.750       31262.408
  43286385.250       30920.943
  46295548.500       32813.625
  46550450.500       32921.918
  44851374.750       28666.312
 93  5  1  7  8 57.0000000  0  7G 2G24G18G13G12G29G16
  45599109.500       35151.188
  43817434.750       31016.557
  45092559.750       31262.408
  43292269.250       30920.943
  46301792.750       32813.625
  46556704.250       32921.918
  44856829.750       28666.312
 93  5  1  7  8 58.0000000  0  7G 2G24G18G13G12G29G16
  45605798.500       35151.188
  43823337.000       31016.557
  45098505.750       31263.383
  43298147.250       30918.020
  46308043.500       32813.625
  46562975.000       32921.918
  44862296.250       28665.338
 93  5  1  7  8 59.0000000  0  7G 2G24G18G13G12G29G16
  45612482.000       35151.188
  43829250.250       31015.578
  45104446.000       31262.408
  43304012.750       30918.020
  46314287.750       32813.625
  46569239.750       32921.918
  44867751.000       28665.338
 93  5  1  7  9  1.0000000  0  7G 2G24G18G13G12G29G16
  45625873.000       35149.234
  43841038.250       31015.578
  45116353.500       31264.359
  43315795.750       30918.020
  46326772.750       32816.551
  46581771.750       32922.895
  44878646.500       28666.312
 93  5  1  7  9  2.0000000  0  7G 2G24G18G13G12G29G16
  45632551.750       35149.234
  43846945.250       31016.557
  45122300.000       31263.383
  43321676.750       30918.020
  46333016.500       32816.551
  46588041.750       32923.871
  44884104.000       28666.312
 93  5  1  7  9  3.0000000  0  7G 2G24G18G13G12G29G16
  45639233.500       35151.188
  43852845.000       31016.557
  45128254.250       31264.359
  43327561.250       30918.994
  46339261.250       32816.551
  46594307.000       32923.871
  44889559.000       28666.312
 93  5  1  7  9  4.0000000  0  7G 2G24G18G13G12G29G16
  45645938.500       35149.234
  43858747.250       31016.557
  45134203.750       31264.359
  43333445.000       30918.994
  46345505.000       32819.480
  46600565.250       32925.820
  44895016.500       28666.312
 93  5  1  7  9  5.0000000  0  7G 2G24G18G13G12G29G16
  45652627.250       35149.234
  43864649.000       31019.480
  45140152.750       31266.311
  43339324.750       30918.020
  46351749.250       32817.527
  46606837.250       32926.797
  44900471.500       28666.312
 93  5  1  7  9  6.0000000  0  7G 2G24G18G13G12G29G16
  45659303.000       35151.188
  43870554.750       31016.557
  45146105.500       31266.311
  43345208.250       30918.020
  46357994.250       32817.527
  46613103.000       32926.797
  44905926.000       28666.312
 93  5  1  7  9  7.0000000  0  7G 2G24G18G13G12G29G16
  45666002.500       35151.188
  43876457.000       31016.557
  45152055.250       31266.311
  43351094.750       30918.994
  46364241.750       32819.480
  46619377.250       32926.797
  44911374.000       28666.312
 93  5  1  7  9  8.0000000  0  7G 2G24G18G13G12G29G16
  45672691.500       35151.188
  43882359.750       31016.557
  45158003.500       31266.311
  43356987.500       30918.994
  46370487.000       32820.453
  46625643.000       32926.797
  44916829.000       28666.312
 93  5  1  7  9  9.0000000  0  7G 2G24G18G13G12G29G16
  45679370.500       35151.188
  43888266.500       31016.557
  45163953.250       31266.311
  43362871.250       30918.994
  46376732.500       32820.453
  46631901.250       32926.797
  44922288.000       28669.240
 93  5  1  7  9 10.0000000  0  7G 2G24G18G13G12G29G16
  45686059.500       35151.188
  43894168.750       31016.557
  45169894.500       31269.236
  43368751.500       30918.020
  46382976.000       32820.453
  46638166.500       32929.723
  44927743.500       28669.240
 93  5  1  7  9 11.0000000  0  7G 2G24G18G13G12G29G16
  45692756.000       35149.234
  43900067.500       31016.557
  45175861.250       31267.287
  43374631.000       30920.943
  46389221.500       32820.453
  46644432.750       32929.723
  44933199.500       28670.217
 93  5  1  7  9 12.0000000  0  7G 2G24G18G13G12G29G16
  45699434.250       35151.188
  43905969.750       31016.557
  45181811.250       31267.287
  43380515.000       30920.943
  46395471.500       32821.430
  46650706.500       32930.699
  44938655.250       28669.240
 93  5  1  7  9 13.0000000  0  7G 2G24G18G13G12G29G16
  45706128.750       35152.160
  43911874.500       31019.480
  45187748.750       31271.189
  43386392.500       30918.994
  46401715.750       32823.383
  46656961.000       32930.699
  44944107.750       28670.217
 93  5  1  7  9 14.0000000  0  7G 2G24G18G13G12G29G16
  45712818.000       35152.160
  43917777.250       31019.480
  45193699.500       31271.189
  43392277.250       30920.943
  46407969.250       32823.383
  46663227.000       32931.676
  44949568.000       28670.217
 93  5  1  7  9 15.0000000  0  7G 2G24G18G13G12G29G16
  45719511.250       35151.188
  43923673.000       31016.557
  45199659.750       31267.287
  43398156.750       30918.994
  46414215.250       32823.383
  46669493.750       32931.676
  44955023.750       28670.217
 93  5  1  7  9 16.0000000  0  7G 2G24G18G13G12G29G16
  45726192.250       35152.160
  43929584.250       31017.531
  45205609.750       31267.287
  43404040.500       30918.994
  46420457.750       32824.355
  46675776.000       32931.676
  44960481.000       28670.217
 93  5  1  7  9 17.0000000  0  7G 2G24G18G13G12G29G16
  45732881.500       35152.160
  43935486.750       31017.531
  45211556.750       31274.113
  43409929.250       30920.943
  46426702.500       32825.332
  46682041.250       32933.625
  44965936.750       28670.217
 93  5  1  7  9 18.0000000  0  7G 2G24G18G13G12G29G16
  45739569.250       35152.160
  43941394.250       31019.480
  45217504.500       31274.113
  43415813.250       30920.943
  46432949.000       32825.332
  46688308.250       32933.625
  44971397.500       28671.191
 93  5  1  7  9 19.0000000  0  7G 2G24G18G13G12G29G16
  45746263.500       35151.188
  43947297.000       31019.480
  45223455.750       31274.113
  43421702.250       30920.943
  46439200.500       32824.355
  46694565.250       32934.602
  44976843.500       28670.217
 93  5  1  7  9 20.0000000  0  7G 2G24G18G13G12G29G16
  45752952.500       35151.188
  43953197.250       31020.455
  45229404.500       31274.113
  43427586.250       30921.922
  46445443.750       32825.332
  46700832.500       32934.602
  44982299.250       28670.217
 93  5  1  7  9 21.0000000  0  7G 2G24G18G13G12G29G16
  45759635.500       35152.160
  43959103.250       31020.455
  45235355.750       31274.113
  43433470.500       30921.922
  46451690.250       32825.332
  46707094.250       32934.602
  44987768.500       28670.217
 93  5  1  7  9 22.0000000  0  7G 2G24G18G13G12G29G16
  45766324.750       35152.160
  43965006.250       31020.455
  45241317.500       31274.113
  43439365.750       30921.922
  46457935.250       32827.285
  46713370.500       32934.602
  44993224.250       28670.217
 93  5  1  7  9 23.0000000  0  7G 2G24G18G13G12G29G16
  45773020.500       35151.188
  43970900.750       31017.531
  45247257.250       31274.113
  43445247.000       30921.922
  46464182.000       32827.285
  46719637.750       32934.602
  44998670.000       28671.191
 93  5  1  7  9 24.0000000  0  7G 2G24G18G13G12G29G16
  45779706.000       35152.160
  43976801.250       31017.531
  45253208.500       31274.113
  43451131.250       30921.922
  46470428.750       32828.262
  46725903.500       32935.578
  45004139.500       28673.141
 93  5  1  7  9 25.0000000  0  7G 2G24G18G13G12G29G16
  45786395.250       35152.160
  43982703.750       31017.531
  45259167.250       31275.092
  43457008.000       30920.943
  46476672.250       32829.234
  46732178.000       32935.578
  45009595.750       28673.141
 93  5  1  7  9 26.0000000  0  7G 2G24G18G13G12G29G16
  45793087.500       35152.160
  43988603.750       31019.480
  45265124.250       31275.092
  43462898.500       30920.943
  46482919.500       32829.234
  46738445.500       32935.578
  45015039.000       28674.119
 93  5  1  7  9 27.0000000  0  7G 2G24G18G13G12G29G16
  45799780.750       35152.160
  43994507.500       31020.455
  45271075.750       31275.092
  43468782.500       30920.943
  46489173.750       32828.262
  46744711.000       32937.527
  45020497.000       28674.119
 93  5  1  7  9 28.0000000  0  7G 2G24G18G13G12G29G16
  45806470.000       35152.160
  44000410.500       31020.455
  45277020.250       31275.092
  43474661.500       30921.922
  46495417.750       32831.188
  46750974.750       32938.504
  45025953.500       28674.119
 93  5  1  7  9 29.0000000  0  7G 2G24G18G13G12G29G16
  45813145.750       35152.160
  44006318.000       31017.531
  45282974.750       31277.041
  43480541.750       30921.922
  46501666.250       32832.164
  46757244.250       32938.504
  45031406.500       28674.119
 93  5  1  7  9 30.0000000  0  7G 2G24G18G13G12G29G16
  45819835.000       35152.160
  44012219.000       31020.455
  45288923.000       31278.018
  43486433.000       30921.922
  46507914.500       32832.164
  46763512.250       32938.504
  45036863.000       28674.119
 93  5  1  7  9 31.0000000  0  7G 2G24G18G13G12G29G16
  45826529.250       35151.188
  44018121.500       31020.455
  45294875.000       31278.018
  43492317.250       30921.922
  46514162.250       32832.164
  46769783.250       32942.406
  45042323.500       28675.094
 93  5  1  7  9 32.0000000  0  7G 2G24G18G13G12G29G16
  45833218.250       35151.188
  44024024.500       31020.455
  45300826.000       31278.018
  43498201.000       30921.922
  46520409.000       32832.164
  46776051.500       32942.406
  45047780.250       28675.094
 93  5  1  7  9 33.0000000  0  7G 2G24G18G13G12G29G16
  45839910.250       35152.160
  44029928.500       31020.455
  45306779.500       31278.994
  43504081.250       30921.922
  46526656.750       32832.164
  46782320.250       32942.406
  45053235.000       28674.119
 93  5  1  7  9 34.0000000  0  7G 2G24G18G13G12G29G16
  45846602.000       35152.160
  44035831.500       31020.455
  45312731.750       31278.994
  43509965.500       30921.922
  46532899.500       32833.137
  46788582.500       32941.430
  45058697.000       28675.094
 93  5  1  7  9 35.0000000  0  7G 2G24G18G13G12G29G16
  45853291.250       35152.160
  44041729.000       31020.455
  45318689.000       31280.945
  43515853.750       30921.922
  46539152.500       32835.090
  46794863.500       32942.406
  45064153.750       28675.094
 93  5  1  7  9 36.0000000  0  7G 2G24G18G13G12G29G16
  45859987.000       35152.160
  44047639.500       31020.455
  45324644.000       31278.994
  43521738.000       30921.922
  46545400.750       32835.090
  46801132.250       32942.406
  45069610.500       28677.043
 93  5  1  7  9 37.0000000  0  7G 2G24G18G13G12G29G16
  45866674.750       35153.137
  44053542.500       31020.455
  45330596.250       31278.994
  43527619.750       30921.922
  46551656.000       32836.066
  46807394.000       32942.406
  45075067.500       28678.021
 93  5  1  7  9 38.0000000  0  7G 2G24G18G13G12G29G16
  45873364.250       35153.137
  44059446.000       31020.455
  45336538.500       31280.945
  43533505.500       30921.922
  46557893.500       32836.066
  46813660.250       32945.332
  45080524.750       28678.021
 93  5  1  7  9 39.0000000  0  7G 2G24G18G13G12G29G16
  45880049.250       35152.160
  44065341.000       31019.480
  45342500.000       31281.920
  43539389.750       30921.922
  46564142.000       32836.066
  46819929.500       32945.332
  45085980.000       28677.043
 93  5  1  7  9 40.0000000  0  7G 2G24G18G13G12G29G16
  45886743.000       35152.160
  44071243.750       31019.480
  45348452.750       31281.920
  43545274.500       30921.922
  46570401.000       32837.039
  46826197.250       32943.379
  45091420.500       28677.043
 93  5  1  7  9 41.0000000  0  7G 2G24G18G13G12G29G16
  45893432.250       35152.160
  44077156.000       31021.434
  45354404.000       31281.920
  43551159.750       30924.848
  46576650.250       32837.039
  46832462.750       32946.309
  45096877.500       28677.043
 93  5  1  7  9 42.0000000  0  7G 2G24G18G13G12G29G16
  45900114.000       35152.160
  44083056.750       31020.455
  45360362.750       31281.920
  43557044.500       30924.848
  46582899.000       32837.039
  46838732.250       32946.309
  45102360.500       28678.021
 93  5  1  7  9 43.0000000  0  7G 2G24G18G13G12G29G16
  45906803.250       35152.160
  44088959.750       31020.455
  45366315.500       31281.920
  43562921.750       30921.922
  46589141.250       32839.969
  46845007.250       32946.309
  45107817.750       28678.021
 93  5  1  7  9 44.0000000  0  7G 2G24G18G13G12G29G16
  45913496.500       35153.137
  44094861.750       31020.455
  45372259.750       31282.895
  43568811.000       30922.896
  46595397.000       32838.992
  46851276.750       32946.309
  45113275.000       28678.021
 93  5  1  7  9 45.0000000  0  7G 2G24G18G13G12G29G16
  45920189.000       35152.160
  44100764.250       31021.434
  45378212.750       31282.895
  43574695.500       30922.896
  46601646.000       32838.992
  46857531.250       32946.309
  45118724.250       28678.021
 93  5  1  7  9 46.0000000  0  7G 2G24G18G13G12G29G16
  45926883.750       35153.137
  44106669.000       31020.455
  45384168.750       31285.822
