     2              OBSERVATION DATA                        RINEX VERSION / TYPE
OBSTORNX                                20-OCT-92 14:01     PGM / RUN BY / DATE
                                                            OBSERVER / AGENCY
4612 BOREHOLE                                               MARKER NAME
4612 BOREHOLE                                               MARKER NUMBER
100082              SR299                                   REC # / TYPE / VERS
     0              SR299                                   ANT # / TYPE
  5239677.9468  2522070.1559 -2614113.0058                  APPROX POSITION XYZ
        0.5250        0.0000        0.0000                  ANTENNA: DELTA H/E/N
     1     1                                                WAVELENGTH FACT L1/2
     4    C1    L1    P2    L2                              # / TYPES OF OBSERV
  1992     8    14     5    58   30.000000                  TIME OF FIRST OBS
                                                            END OF HEADER
 92  8 14  5 58 30.0000000  0  5G26G 3G16G17G24                     -1.000000000
  -3063788.173   -16100328.520 9  -3063788.020   -12545588.776 8
  -1836888.970    -9652905.690 8  -1836886.030    -7521623.225 7
   -610290.499    -3207102.218 7   -610286.443    -2498919.962 7
   -478211.789    -2513018.914 7   -478205.074    -1958074.839 7
    282458.141     1484315.548 7    282456.013     1156730.156 6
 92  8 14  5 58 45.0000000  0  5G26G 3G16G17G24                      0.000000232
  20303528.958   106695751.81119  20303528.865    83139668.61419
  21527190.152   113126174.79018  21527195.645    88150387.52017
  22758209.790   119595177.64517  22758209.681    93191168.21517
  22877922.414   120224280.73017  22877926.459    93681379.40917
  23655480.353   124310404.27916  23655484.266    96865370.64416
 92  8 14  6 42 45.0000000  0  6G26G 3G16G17G12G23                  -0.000000090
  21070923.659   110728433.182 8  21070925.371    86282015.023 8
  21911622.329   115146335.510 7  21911623.109    89724535.725 7
  23508143.799   123536093.462 7  23508149.550    96262004.611 7
  21530645.313   113144265.782 8  21530645.458    88164483.929 8
  23589219.942   123962191.470 6  23589228.474    96594037.253 6
  23076067.749   121265528.496 6  23076069.822    94492739.355 7
 92  8 14  6 43  0.0000000  0  6G26G 3G16G17G12G23                  -0.000000066
  21076493.881   110757682.895 8  21076491.400    86304806.983 8
  21916203.281   115170410.576 8  21916204.190    89743295.486 7
  23512692.893   123559965.112 7  23512692.171    96280605.886 7
  21524010.860   113109403.497 8  21524011.139    88137318.504 8
  23579540.757   123911293.011 6  23579542.089    96554376.125 6
  23070717.589   121237410.214 7  23070719.333    94470828.997 7
 92  8 14  6 43 15.0000000  0  6G26G 3G16G17G12G23                   0.000000008
  21082050.935   110786898.414 8  21082050.923    86327572.298 8
  21920789.922   115194526.540 7  21920793.059    89762087.136 7
  23517210.503   123583771.314 7  23517221.841    96299156.125 6
  21517376.617   113074527.311 8  21517374.423    88110142.260 8
  23569841.192   123860325.455 6  23569843.053    96514661.195 6
  23065351.266   121209207.000 7  23065352.445    94448852.490 7
 92  8 14  6 43 30.0000000  0  6G26G 3G16G17G12G23                  -0.000000062
  21087664.611   110816392.482 8  21087663.451    86350554.663 8
  21925448.293   115218993.442 8  21925449.193    89781152.225 7
  23521799.544   123607819.887 7  23521797.871    96317895.204 6
  21510793.194   113039947.192 8  21510794.041    88083196.694 8
  23560183.069   123809599.675 6  23560189.529    96475134.628 6
  23060022.629   121181227.820 6  23060028.423    94427050.509 7
 92  8 14  6 43 45.0000000  0  6G26G 3G16G17G12G23                   0.000000019
  21093240.529   110845705.129 8  21093241.705    86373395.679 8
  21930080.281   115243351.707 7  21930084.173    89800132.693 7
  23526328.865   123631651.630 7  23526333.628    96336465.370 6
  21504182.599   113005206.280 8  21504183.312    88056125.866 8
  23550495.439   123758656.835 6  23550496.409    96435438.920 6
  23054656.763   121153010.006 7  23054658.511    94405062.618 7
 92  8 14  6 43 60.0000000  0  6G26G 3G16G17G12G23                  -0.000000044
  21098870.778   110875298.286 8  21098873.088    86396455.253 8
  21934782.339   115268067.184 7  21934787.365    89819391.479 7
  23530906.198   123655731.677 7  23530915.652    96355228.994 6
  21497631.372   112970773.349 8  21497630.941    88029295.003 8
  23540847.100   123707963.472 6  23540850.035    96395937.630 6
  23049324.595   121125016.272 6  23049330.744    94383249.300 7
 92  8 14  6 44 15.0000000  0  6G26G 3G16G17G12G23                   0.000000043
  21104471.432   110904710.921 8  21104470.122    86419374.171 8
  21939468.319   115292680.176 8  21939471.300    89838570.410 7
  23535452.061   123679599.348 7  23535458.000    96373827.148 7
  21491049.034   112936190.930 8  21491050.122    88002347.647 8
  23531159.464   123657060.598 6  23531163.786    96356273.062 6
  23043959.766   121096785.908 7  23043959.416    94361251.613 7
 92  8 14  6 44 30.0000000  0  6G26G 3G16G17G12G23                  -0.000000019
  21110122.233   110934415.078 8  21110122.386    86442520.249 8
  21944220.362   115317659.331 8  21944224.671    89858034.670 7
  23540049.858   123703723.937 7  23540048.750    96392625.504 7
  21484531.444   112901930.762 8  21484530.387    87975651.424 8
  23521521.291   123606417.660 6  23521526.033    96316811.072 6
  23038632.477   121068789.814 7  23038631.939    94339436.485 7
 92  8 14  6 44 45.0000000  0  6G26G 3G16G17G12G23                  -0.000000130
  21115801.468   110964256.661 8  21115801.775    86465773.395 8
  21949012.644   115342847.943 7  21949018.143    89877662.135 7
  23544655.703   123727950.817 7  23544657.981    96411503.534 6
  21478044.048   112867839.267 8  21478043.232    87949086.608 8
  23511903.089   123555878.665 6  23511909.511    96277430.024 6
  23033322.038   121040871.267 7  23033318.974    94317681.779 7
 92  8 14  6 45  0.0000000  0  6G26G 3G16G17G12G23                   0.000000006
  21121420.314   110993778.899 8  21121419.182    86488777.738 8
  21953761.371   115367785.674 7  21953762.898    89897094.117 7
  23549196.921   123751823.077 7  23549200.474    96430105.283 6
  21471500.569   112833458.052 8  21471500.708    87922296.067 8
  23502219.850   123504983.901 6  23502224.074    96237771.779 6
  23027939.134   121012568.919 7  23027933.463    94295628.011 7
 92  8 14  6 45 15.0000000  0  6G26G 3G16G17G12G23                  -0.000000005
  21127093.963   111023602.123 8  21127094.346    86512016.588 8
  21958576.323   115393090.418 8  21958578.225    89916812.074 7
  23553791.670   123775960.644 7  23553794.656    96448913.692 6
  21465017.898   112799408.387 8  21465021.267    87895763.838 8
  23492587.042   123454352.156 6  23492589.418    96198318.474 6
  23022591.096   120984500.789 7  23022591.783    94273756.725 7
 92  8 14  6 45 30.0000000  0  6G26G 3G16G17G12G23                  -0.000000066
  21132799.930   111053579.184 8  21132798.787    86535375.317 8
  21963436.278   115418614.655 8  21963435.811    89936701.075 7
  23558404.890   123800216.279 6  23558408.873    96467814.139 6
  21458573.527   112765545.989 8  21458577.468    87869377.559 8
  23482975.216   123403836.669 6  23482977.615    96158955.746 6
  23017265.698   120956519.632 7  23017267.877    94251953.220 7
 92  8 14  6 45 45.0000000  0  6G26G 3G16G17G12G23                  -0.000000080
  21138504.357   111083555.148 8  21138503.014    86558733.175 8
  21968307.323   115444204.166 8  21968305.081    89956640.922 7
  23563016.767   123824436.855 6  23563019.107    96486687.275 6
  21452138.403   112731718.185 8  21452140.249    87843018.224 8
  23473356.454   123353283.733 7  23473356.250    96119563.866 6
  23011934.958   120928470.405 7  23011930.534    94230096.692 7
 92  8 14  6 46  0.0000000  0  6G26G 3G16G17G12G23                  -0.000000048
  21144204.907   111113530.740 8  21144207.418    86582090.755 8
  21973186.099   115469860.306 8  21973187.522    89976632.705 7
  23567616.732   123848625.836 6  23567622.603    96505535.823 6
  21445707.278   112697925.393 8  21445709.448    87816686.168 8
  23463728.524   123302695.621 7  23463730.633    96080144.574 6
  23006573.754   120900354.089 7  23006579.688    94208187.874 7
 92  8 14  6 46 15.0000000  0  6G26G 3G16G17G12G23                   0.000000031
  21149913.842   111143507.396 8  21149911.785    86605449.183 8
  21978082.550   115495583.333 8  21978082.442    89996676.583 7
  23572219.559   123872781.857 6  23572218.350    96524358.638 6
  21439285.291   112664165.624 8  21439285.423    87790379.859 8
  23454095.025   123252073.238 6  23454097.274    96040698.576 6
  23001212.560   120872171.821 7  23001216.781    94186227.664 7
 92  8 14  6 46 30.0000000  0  6G26G 3G16G17G12G23                  -0.000000045
  21155673.502   111173796.617 8  21155675.870    86629051.151 8
  21983049.573   115521683.212 8  21983048.837    90017014.140 7
  23576867.477   123897217.830 6  23576869.082    96543399.607 6
  21432921.243   112630746.327 8  21432925.696    87764338.841 8
  23444513.751   123201727.308 6  23444515.782    96001467.969 6
  22995903.434   120844236.179 7  22995901.047    94164459.623 7
 92  8 14  6 46 45.0000000  0  6G26G 3G16G17G12G23                   0.000000015
  21161408.759   111203936.594 8  21161411.068    86652536.826 8
  21987999.374   115547699.593 8  21987999.828    90037286.618 7
  23581483.553   123921473.475 6  23581484.767    96562300.066 6
  21426539.902   112597206.155 8  21426543.453    87738203.623 8
  23434901.449   123151198.319 7  23434899.704    95962094.737 6
  22990542.793   120816087.821 7  22990543.860    94142525.838 7
 92  8 14  6 46 60.0000000  0  6G26G 3G16G17G12G23                   0.000000011
  21167175.893   111234239.090 8  21167177.436    86676149.141 8
  21992989.862   115573946.786 8  21992994.744    90057738.965 7
  23586121.415   123945861.604 6  23586125.414    96581303.742 6
  21420197.738   112563858.859 8  21420197.429    87712218.713 8
  23425307.202   123100801.207 7  23425310.189    95922824.275 6
  22985201.701   120788042.193 7  22985207.685    94120672.093 7
 92  8 14  6 47 15.0000000  0  6G26G 3G16G17G12G23                   0.000000038
  21172945.050   111264546.211 8  21172943.952    86699765.059 8
  21998001.252   115600269.818 7  21998003.596    90078250.378 7
  23590756.855   123970229.004 6  23590761.882    96600291.303 6
  21413862.244   112530548.612 8  21413858.701    87686262.684 8
  23415709.692   123050381.955 6  23415715.970    95883536.556 6
  22979855.441   120759946.404 7  22979860.503    94098779.276 7
 92  8 14  6 47 30.0000000  0  6G26G 3G16G17G12G23                   0.000000091
  21178713.151   111294854.788 8  21178711.723    86723382.118 8
  22003025.590   115626670.890 8  22003027.553    90098822.641 7
  23595393.416   123994577.297 6  23595396.420    96619263.960 6
  21407526.246   112497274.715 8  21407526.888    87660334.966 8
  23406115.702   122999943.196 7  23406117.800    95844233.654 6
  22974507.799   120731803.356 7  22974505.788    94076849.616 7
 92  8 14  6 47 45.0000000  0  6G26G 3G16G17G12G23                  -0.000000029
  21184537.331   111325473.057 8  21184538.913    86747240.488 8
  22008124.314   115653459.869 8  22008125.075    90119697.140 7
  23600083.880   124019216.851 6  23600084.920    96638463.585 6
  21401259.386   112464345.143 8  21401260.842    87634675.556 8
  23396573.173   122949795.868 7  23396574.598    95805157.835 6
  22969199.630   120703922.742 7  22969200.287    94055124.476 7
 92  8 14  6 47 60.0000000  0  6G26G 3G16G17G12G23                  -0.000000030
  21190335.593   111355943.131 8  21190337.171    86770983.384 8
  22013206.196   115680178.334 8  22013209.423    90140516.699 7
  23604735.663   124043688.133 6  23604740.668    96657532.094 6
  21394970.278   112431297.661 8  21394971.624    87608924.260 8
  23386995.936   122899482.146 6  23387000.459    95765952.336 6
  22963855.935   120675845.433 7  22963857.108    94033246.049 7
 92  8 14  6 48 15.0000000  0  6G26G 3G16G17G12G23                  -0.000000011
  21196134.735   111386422.827 8  21196137.745    86794733.764 8
  22018307.700   115706982.921 8  22018310.650    90161403.367 7
  23609396.783   124068146.485 6  23609396.629    96676590.475 6
  21388690.203   112398289.642 8  21388690.647    87583203.708 8
  23377422.474   122849159.264 6  23377425.310    95726739.701 6
  22958504.888   120647730.494 7  22958507.499    94011338.295 7
 92  8 14  6 48 30.0000000  0  6G26G 3G16G17G12G23                   0.000000022
  21201935.270   111416913.844 8  21201939.504    86818492.996 8
  22023427.814   115733874.300 8  22023427.905    90182357.674 7
  23614040.063   124092594.086 6  23614048.595    96695640.498 7
  21382419.138   112365324.975 8  21382417.678    87557516.951 8
  23367841.126   122798828.940 6  23367847.283    95687521.285 6
  22953148.787   120619583.991 7  22953151.643    93989405.961 7
 92  8 14  6 48 45.0000000  0  6G26G 3G16G17G12G23                  -0.000000030
  21207776.544   111447572.948 8  21207774.218    86842383.174 8
  22028591.125   115761009.686 8  22028591.342    90203502.084 7
  23618725.652   124117188.025 6  23618727.920    96714804.553 7
  21376184.322   112332562.797 8  21376183.246    87531987.991 8
  23358299.235   122748648.967 7  23358298.364    95648420.057 6
  22947821.312   120591562.919 7  22947819.167    93967571.364 7
 92  8 14  6 49  0.0000000  0  6G26G 3G16G17G12G23                  -0.000000068
  21213610.624   111478249.243 8  21213611.473    86866286.760 8
  22033768.683   115788238.934 8  22033773.385    90224719.685 7
  23623406.659   124141774.883 6  23623406.391    96733963.108 7
  21369958.547   112299855.125 8  21369959.178    87506501.476 8
  23348744.975   122698469.991 6  23348750.114    95609319.570 6
  22942481.640   120563516.753 7  22942482.400    93945717.196 7
 92  8 14  6 49 15.0000000  0  6G26G 3G16G17G12G23                   0.000000102
  21219395.885   111508639.000 8  21219394.445    86889967.061 8
  22038913.005   115815256.532 7  22038914.653    90245772.317 7
  23628032.169   124166050.098 6  23628027.261    96752878.798 7
  21363687.655   112266898.366 8  21363687.467    87480820.867 8
  23339140.134   122647987.212 6  23339142.590    95569982.362 6
  22937078.630   120535137.744 7  22937082.294    93923603.665 7
 92  8 14  6 49 30.0000000  0  6G26G 3G16G17G12G23                  -0.000000005
  21225267.753   111539513.873 8  21225269.493    86914025.401 8
  22044162.590   115842832.287 8  22044162.142    90267259.907 7
  23632730.340   124190783.157 6  23632732.818    96772151.269 7
  21357517.590   112234465.457 8  21357515.937    87455548.482 8
  23329621.635   122597971.159 6  23329624.613    95531008.840 6
  22931761.345   120507194.224 7  22931764.093    93901829.517 7
 92  8 14  6 49 45.0000000  0  6G26G 3G16G17G12G23                   0.000000006
  21231119.552   111570260.284 8  21231120.580    86937983.627 8
  22049398.568   115870350.535 8  22049398.926    90288702.663 7
  23637406.132   124215355.608 6  23637409.764    96791298.581 7
  21351325.592   112201944.289 8  21351327.609    87430207.313 8
  23320073.806   122547806.982 6  23320078.693    95491919.893 6
  22926412.327   120479070.946 7  22926412.408    93879915.265 7
 92  8 14  6 49 60.0000000  0  6G26G 3G16G17G12G23                   0.000000036
  21236977.043   111601037.608 8  21236977.057    86961965.918 8
  22054654.445   115897967.356 8  22054653.986    90310222.254 7
  23642085.948   124239923.207 6  23642084.805    96810442.093 7
  21345151.523   112169495.336 8  21345152.774    87404922.397 8
  23310535.280   122497651.688 7  23310535.447    95452837.893 6
  22921049.436   120450925.765 7  22921056.312    93857983.946 7
 92  8 14  6 50 15.0000000  0  6G26G 3G16G17G12G23                  -0.000000015
  21242869.994   111632003.272 8  21242870.109    86986094.983 8
  22059955.239   115925841.217 8  22059957.953    90331942.114 7
  23646786.094   124264646.641 6  23646789.019    96829707.061 7
  21339021.963   112137279.282 8  21339022.018    87379818.974 8
  23301017.905   122447664.546 7  23301021.500    95413886.871 6
  22915723.544   120422918.010 7  22915726.610    93836159.708 7
 92  8 14  6 50 30.0000000  0  6G26G 3G16G17G12G23                  -0.000000053
  21248766.062   111662997.319 8  21248768.079    87010246.183 8
  22065281.782   115953816.389 8  22065281.449    90353740.937 7
  23651489.022   124289371.697 6  23651494.270    96848973.278 7
  21332902.983   112105142.821 8  21332906.896    87354777.573 8
  23291511.150   122397690.211 7  23291513.178    95374945.885 6
  22910391.093   120394892.793 7  22910394.079    93814321.885 7
 92  8 14  6 50 45.0000000  0  6G26G 3G16G17G12G23                  -0.000000077
  21254673.259   111694023.847 8  21254671.979    87034422.668 8
  22070623.722   115981896.472 7  22070625.148    90375621.492 7
  23656199.613   124314104.020 6  23656200.670    96868245.197 7
  21326803.490   112073089.771 8  21326807.156    87329801.157 8
  23282005.438   122347733.357 7  23282005.978    95336018.487 6
  22905056.687   120366852.300 7  22905057.417    93792472.145 7
 92  8 14  6 50 60.0000000  0  6G26G 3G16G17G12G23                   0.000000110
  21260524.136   111724771.413 8  21260523.287    87058381.794 8
  22075928.755   116009770.607 8  22075929.411    90397341.565 7
  23660843.619   124338532.436 6  23660849.476    96887280.285 7
  21320665.229   112040809.991 8  21320664.522    87304648.100 8
  23272439.251   122297483.706 7  23272443.310    95296862.961 6
  22899656.046   120338484.741 7  22899659.740    93770367.560 7
 92  8 14  6 51 15.0000000  0  6G26G 3G16G17G12G23                   0.000000014
  21266469.221   111756020.049 8  21266470.187    87082731.356 8
  22081338.515   116038216.090 7  22081342.648    90419506.865 7
  23665580.727   124363436.107 6  23665588.971    96906685.723 7
  21314624.373   112009081.081 8  21314626.708    87279924.260 8
  23262970.754   122247719.419 7  23262973.728    95258085.606 6
  22894348.923   120310568.618 7  22894347.476    93748614.727 7
 92  8 14  6 51 30.0000000  0  6G26G 3G16G17G12G23                   0.000000023
  21272393.234   111787156.949 8  21272395.335    87106993.849 8
  22086742.431   116066618.858 7  22086747.508    90441638.864 7
  23670303.253   124388205.149 6  23670302.582    96925986.170 7
  21308573.681   111977288.480 8  21308577.019    87255150.796 8
  23253477.561   122197827.353 7  23253480.083    95219208.715 6
  22889005.925   120282490.979 7  22889004.478    93726736.043 7
 92  8 14  6 51 45.0000000  0  6G26G 3G16G17G12G23                   0.000000033
  21278328.017   111818337.443 8  21278328.538    87131290.321 8
  22092174.102   116095135.484 8  22092174.037    90463859.591 7
  23675014.395   124412997.362 6  23675019.399    96945304.750 7
  21302545.353   111945586.403 8  21302544.315    87230447.878 8
  23243988.238   122147964.622 7  23243990.796    95180354.673 6
  22883658.237   120254411.688 7  22883660.923    93704856.079 7
 92  8 14  6 52  0.0000000  0  6G26G 3G16G17G12G23                   0.000000042
  21284269.245   111849560.804 8  21284270.141    87155620.191 8
  22097621.568   116123764.112 8  22097621.637    90486167.602 7
  23679737.638   124437813.173 6  23679742.657    96964641.700 7
  21296526.553   111913969.394 8  21296528.041    87205811.245 8
  23234507.355   122098130.244 7  23234508.374    95141522.740 6
  22878317.745   120226331.213 7  22878317.382    93682975.172 7
 92  8 14  6 52 15.0000000  0  6G26G 3G16G17G12G23                   0.000000046
  21290220.072   111880828.614 8  21290219.956    87179984.689 8
  22103093.192   116152506.691 7  22103091.159    90508564.380 7
  23684465.345   124462657.442 6  23684470.359    96984000.850 7
  21290525.052   111882436.295 8  21290527.488    87181239.981 8
  23225021.497   122048326.727 7  23225030.837    95102714.811 6
  22872975.461   120198250.321 7  22872973.520    93661093.952 7
 92  8 14  6 52 30.0000000  0  6G26G 3G16G17G12G23                   0.000000046
  21296177.789   111912141.626 8  21296178.863    87204384.418 8
  22108582.510   116181364.249 8  22108582.808    90531050.767 7
  23689201.619   124487531.732 6  23689203.516    97003383.336 7
  21284536.086   111850988.064 8  21284542.845    87156734.869 8
  23215558.462   121998556.140 7  23215559.329    95063932.570 6
  22867625.810   120170168.716 7  22867630.255    93639212.172 7
 92  8 14  6 52 45.0000000  0  6G26G 3G16G17G12G23                  -0.000000054
  21302174.247   111943657.228 8  21302175.832    87228942.004 8
  22114124.795   116210490.154 8  22114125.524    90553746.260 7
  23693964.642   124512588.583 6  23693971.907    97022908.100 7
  21278603.196   111819778.516 8  21278604.108    87132415.733 8
  23206127.021   121948972.584 7  23206124.631    95025296.056 6
  22862310.412   120142239.110 7  22862315.189    93617448.865 7
 92  8 14  6 53  0.0000000  0  6G26G 3G16G17G12G23                  -0.000000062
  21308153.133   111975078.486 8  21308155.338    87253426.081 8
  22119657.237   116239586.335 7  22119662.090    90576418.573 7
  23698714.293   124537529.169 6  23698717.686    97042342.274 7
  21272653.250   111788508.342 8  21272653.347    87108049.365 8
  23196659.389   121899278.840 7  23196668.235    94986573.696 6
  22856971.337   120114163.078 7  22856972.497    93595571.436 7
 92  8 14  6 53 15.0000000  0  6G26G 3G16G17G12G23                   0.000000024
  21314116.231   112006398.773 8  21314115.627    87277831.468 8
  22125189.820   116268648.256 7  22125192.875    90599064.211 7
  23703433.731   124562347.981 6  23703441.270    97061681.557 7
  21266689.306   111757172.600 8  21266690.352    87083631.896 8
  23187184.863   121849470.869 7  23187189.858    94947762.329 6
  22851598.460   120085933.422 7  22851600.567    93573574.279 7
 92  8 14  6 53 30.0000000  0  6G26G 3G16G17G12G23                   0.000000008
  21320116.304   112037928.371 8  21320115.747    87302399.956 8
  22130770.576   116297986.322 7  22130775.473    90621925.017 7
  23708196.347   124587356.702 6  23708199.765    97081168.799 7
  21260773.009   111726081.251 8  21260773.865    87059404.870 8
  23177747.266   121799859.963 7  23177748.733    94909104.500 6
  22846259.348   120057859.196 7  22846258.218    93551698.253 7
 92  8 14  6 53 45.0000000  0  6G26G 3G16G17G12G23                  -0.000000014
  21326122.399   112069512.612 8  21326125.780    87327011.037 8
  22136380.852   116327448.524 7  22136382.182    90644882.556 7
  23712964.544   124612402.745 6  23712966.831    97100685.139 7
  21254873.555   111695084.414 8  21254875.606    87035251.484 8
  23168314.656   121750295.263 7  23168317.382    94870482.695 7
  22840916.996   120029788.950 7  22840917.114    93529825.327 7
 92  8 14  6 53 60.0000000  0  6G26G 3G16G17G12G23                   0.000000053
  21332115.644   112101001.330 8  21332118.364    87351547.669 8
  22141980.514   116356884.948 7  22141983.737    90667819.988 7
  23717710.679   124637334.854 6  23717710.994    97120112.694 7
  21248966.895   111664033.702 8  21248966.851    87011056.122 8
  23158864.829   121700627.089 7  23158866.336    94831780.240 7
  22835550.663   120001572.676 7  22835547.493    93507838.627 7
 92  8 14  6 54 15.0000000  0  6G26G 3G16G17G12G23                  -0.000000080
  21338180.184   112132857.700 8  21338179.935    87376370.788 8
  22147663.682   116386758.197 7  22147668.424    90691097.828 7
  23722516.677   124662615.539 6  23722521.261    97139811.931 7
  21243135.187   111633395.873 8  21243136.174    86987182.473 8
  23149478.965   121651319.039 7  23149483.340    94793358.439 7
  22830234.638   119973671.777 7  22830238.122    93486097.641 7
 92  8 14  6 54 30.0000000  0  6G26G 3G16G17G12G23                  -0.000000019
  21344194.444   112164460.851 8  21344193.566    87400996.602 8
  22153312.767   116416449.337 7  22153317.723    90714233.765 7
  23727279.825   124687627.051 6  23727280.538    97159301.376 7
  21237266.870   111602555.659 8  21237267.722    86963151.144 8
  23140042.492   121601753.040 7  23140051.248    94754735.602 7
  22824866.545   119945466.257 7  22824870.791    93464119.317 7
 92  8 14  6 54 45.0000000  0  6G26G 3G16G17G12G23                  -0.000000061
  21350244.886   112196273.141 8  21350247.724    87425785.365 8
  22159019.633   116446421.119 7  22159021.645    90737588.371 7
  23732080.115   124712831.747 6  23732077.299    97178941.312 7
  21231450.276   111571978.251 8  21231449.276    86939324.581 8
  23130654.889   121552392.852 7  23130657.591    94716273.143 7
  22819536.682   119917421.640 7  22819534.079    93442266.374 7
 92  8 14  6 55  0.0000000  0  6G26G 3G16G17G12G23                  -0.000000013
  21356283.324   112227987.344 8  21356282.489    87450497.721 8
  22164718.664   116476368.733 7  22164720.237    90760924.153 7
  23736851.481   124737924.447 6  23736852.033    97198494.049 7
  21225624.086   111541358.415 8  21225622.516    86915464.974 8
  23121243.767   121502934.071 7  23121244.924    94677733.845 7
  22814170.018   119889234.630 7  22814170.267    93420302.460 7
 92  8 14  6 55 15.0000000  0  6G26G 3G16G17G12G23                   0.000000024
  21362329.987   112259759.773 8  21362328.080    87475255.404 8
  22170438.947   116506448.019 7  22170444.128    90784362.529 7
  23741632.034   124763064.419 6  23741636.238    97218083.566 7
  21219816.862   111510854.246 8  21219817.520    86891695.483 8
  23111839.501   121453533.321 7  23111845.256    94639239.779 6
  22808805.588   119861061.362 7  22808808.829    93398349.266 7
 92  8 14  6 55 30.0000000  0  6G26G 3G16G17G12G23                   0.000000048
  21368387.402   112291597.706 8  21368386.634    87500064.168 8
  22176193.419   116536662.975 7  22176194.324    90807906.622 7
  23746424.290   124788255.895 6  23746430.741    97237713.258 7
  21214035.629   111480472.660 8  21214036.583    86868021.514 8
  23102454.640   121404195.543 7  23102456.848    94600794.814 7
  22803449.593   119832910.419 7  22803452.131    93376413.485 7
 92  8 14  6 55 45.0000000  0  6G26G 3G16G17G12G23                   0.000000054
  21374457.662   112323505.136 8  21374459.142    87524927.073 8
  22181972.868   116567016.182 7  22181970.100    90831558.457 7
  23751224.233   124813502.764 6  23751234.315    97257386.090 7
  21208276.269   111450220.019 8  21208279.452    86844448.023 8
  23093078.033   121354924.140 7  23093080.081    94562401.525 7
  22798096.643   119804788.475 7  22798100.693    93354500.241 7
 92  8 14  6 56  0.0000000  0  6G26G 3G16G17G12G23                  -0.000000055
  21380570.428   112355632.939 8  21380573.343    87549961.705 8
  22187800.380   116597657.969 7  22187801.273    90855435.136 7
  23756071.674   124838955.242 6  23756078.233    97277219.125 7
  21202575.324   111420246.350 8  21202575.651    86821091.911 8
  23083745.474   121305870.214 7  23083746.172    94524177.728 7
  22792783.562   119776849.047 7  22792783.502    93332729.232 7
 92  8 14  6 56 15.0000000  0  6G26G 3G16G17G12G23                  -0.000000086
  21386669.063   112387674.480 8  21386670.639    87574929.115 8
  22193625.820   116628279.861 7  22193628.664    90879296.330 7
  23760900.865   124864304.812 6  23760902.086    97296971.996 7
  21196862.225   111390241.816 8  21196865.734    86797711.758 8
  23074390.027   121256726.009 7  23074392.639    94485883.571 6
  22787442.001   119748785.955 7  22787444.014    93310861.919 7
 92  8 14  6 56 30.0000000  0  6G26G 3G16G17G12G23                   0.000000055
  21392718.860   112419478.378 8  21392722.715    87599711.352 8
  22199421.794   116658732.912 7  22199423.436    90903025.953 7
  23765675.420   124889401.268 6  23765678.012    97316527.612 7
  21191118.110   111360057.289 8  21191122.053    86774191.342 8
  23064995.681   121207343.385 7  23064996.171    94447403.606 6
  22782051.265   119720451.445 7  22782051.886    93288783.060 7
 92  8 14  6 56 45.0000000  0  6G26G 3G16G17G12G23                  -0.000000025
  21398845.973   112451662.572 8  21398846.667    87624789.915 8
  22205302.286   116689635.101 7  22205303.922    90927105.557 7
  23770520.917   124914861.524 6  23770522.922    97336366.711 7
  21185460.648   111330311.123 8  21185461.788    86751012.503 8
  23055670.274   121158341.043 7  23055671.587    94409219.995 7
  22776724.028   119692464.626 7  22776726.417    93266975.153 7
 92  8 14  6 56 60.0000000  0  6G26G 3G16G17G12G23                  -0.000000032
  21404952.879   112483767.581 8  21404956.041    87649806.777 8
  22211182.839   116720525.620 7  22211182.428    90951176.059 7
  23775343.272   124940223.170 6  23775349.312    97356128.973 7
  21179797.207   111300542.540 8  21179797.014    86727816.202 8
  23046334.124   121109259.240 7  23046331.634    94370974.447 7
  22771375.260   119664365.660 7  22771378.622    93245079.828 7
 92  8 14  6 57 15.0000000  0  6G26G 3G16G17G12G23                  -0.000000065
  21411081.388   112515950.116 8  21411079.683    87674884.067 8
  22217083.972   116751559.280 7  22217087.931    90975358.108 7
  23780185.869   124965643.191 6  23780186.332    97375936.760 7
  21174152.684   111270906.374 8  21174157.437    86704723.078 8
  23037000.814   121060253.365 7  23037006.621    94332788.076 7
  22766037.764   119636309.930 7  22766039.792    93223218.210 7
 92  8 14  6 57 30.0000000  0  6G26G 3G16G17G12G23                  -0.000000028
  21417190.717   112548059.855 8  21417189.711    87699904.614 8
  22222991.149   116782584.705 7  22222991.622    90999533.735 7
  23784999.951   124990969.360 6  23785006.217    97395671.381 7
  21168514.885   111241252.538 8  21168514.258    86681616.202 8
  23027664.128   121011172.753 6  23027666.411    94294543.479 7
  22760682.465   119608146.643 7  22760680.746    93201272.814 7
 92  8 14  6 57 45.0000000  0  6G26G 3G16G17G12G23                  -0.000000018
  21423316.288   112580247.949 8  21423314.895    87724986.216 8
  22228920.394   116813756.097 7  22228923.088    91023823.094 7
  23789833.992   125016355.422 6  23789836.278    97415452.673 7
  21162897.999   111211735.604 8  21162897.367    86658615.973 8
  23018339.907   120962172.637 6  23018342.002    94256361.584 7
  22755333.876   119580030.616 7  22755330.680    93179364.188 7
 92  8 14  6 58  0.0000000  0  6G26G 3G16G17G12G23                   0.000000057
  21429424.369   112612362.131 8  21429426.262    87750010.243 8
  22234849.675   116844924.683 7  22234854.516    91048110.303 7
  23794647.059   125041653.258 6  23794651.019    97435165.233 7
  21157273.952   111182207.036 8  21157278.269    86635606.707 8
  23008998.619   120913104.842 7  23009004.962    94218126.963 7
  22749961.242   119551809.236 7  22749960.088    93157373.512 7
 92  8 14  6 58 15.0000000  0  6G26G 3G16G17G12G23                   0.000000008
  21435581.636   112644707.785 8  21435582.403    87775214.610 8
  22240842.330   116876396.295 7  22240843.354    91072633.593 7
  23799501.710   125067168.622 6  23799505.436    97455047.260 7
  21151714.775   111152972.365 8  21151715.090    86612826.418 8
  22999707.386   120864276.080 7  22999713.648    94180078.589 7
  22744630.749   119523785.305 7  22744627.064    93135536.667 7
 92  8 14  6 58 30.0000000  0  6G26G 3G16G17G12G23                   0.000000033
  21441721.197   112676978.396 8  21441723.536    87800360.524 8
  22246830.590   116907864.816 7  22246831.610    91097154.501 7
  23804341.129   125092596.938 6  23804345.245    97474861.467 7
  21146149.728   111123727.847 8  21146150.293    86590038.503 8
  22990408.142   120815381.222 7  22990408.783    94141978.721 7
  22739270.856   119495648.880 7  22739273.121    93113612.167 7
 92  8 14  6 58 45.0000000  0  6G26G 3G16G17G12G23                   0.000000037
  21447879.769   112709325.910 8  21447878.567    87825566.348 8
  22252850.345   116939481.840 7  22252848.368    91121791.119 7
  23809194.853   125118091.432 6  23809196.426    97494727.245 7
  21140606.867   111094627.912 8  21140612.756    86567363.217 8
  22981119.766   120766572.478 7  22981121.036    94103945.949 7
  22733917.705   119467549.881 7  22733926.061    93091716.849 7
 92  8 14  6 59  0.0000000  0  6G26G 3G16G17G12G23                  -0.000000076
  21454077.707   112741904.296 8  21454078.513    87850952.091 8
  22258922.209   116971399.700 7  22258921.885    91146662.152 7
  23814087.157   125143805.664 6  23814089.669    97514764.258 7
  21135128.906   111065825.033 8  21135131.750    86544919.413 8
  22971872.008   120718003.182 6  22971878.124    94066099.768 7
  22728612.697   119439640.873 7  22728614.904    93069969.550 7
 92  8 14  6 59 15.0000000  0  6G26G 3G16G17G12G23                  -0.000000019
  21460235.712   112774255.830 8  21460234.311    87876161.051 8
  22264968.787   117003161.680 7  22264965.980    91171411.713 7
  23818938.320   125169285.697 6  23818938.346    97534618.779 7
  21129618.024   111036862.151 8  21129620.295    86522350.925 8
  22962591.365   120669217.075 7  22962594.682    94028084.626 7
  22723252.699   119411463.897 7  22723253.008    93048013.483 7
 92  8 14  6 59 30.0000000  0  6G26G 3G16G17G12G23                   0.000000017
  21466407.205   112806686.243 8  21466406.097    87901431.483 8
  22271037.047   117035073.605 7  22271038.857    91196278.129 7
  23823793.966   125194839.289 6  23823801.262    97554530.607 7
  21124135.505   111008048.319 8  21124137.448    86499898.582 8
  22953328.039   120620520.966 7  22953328.121    93990139.608 7
  22717898.012   119383322.827 7  22717897.938    93026085.364 7
 92  8 14  6 59 45.0000000  0  6G26G 3G16G17G12G23                   0.000000031
  21472590.827   112839200.397 8  21472592.593    87926767.153 8
  22277134.402   117067142.421 7  22277141.340    91221266.775 7
  23828677.460   125220471.224 6  23828678.603    97574503.501 7
  21118682.777   110979390.040 8  21118683.714    86477567.454 8
  22944072.675   120571922.702 7  22944080.178    93952270.826 7
  22712549.660   119355222.043 7  22712550.292    93004188.648 7
 92  8 14  6 59 60.0000000  0  6G26G 3G16G17G12G23                   0.000000023
  21478796.623   112871795.074 8  21478795.640    87952165.592 8
  22283274.163   117099366.081 7  22283273.537    91246376.099 7
  23833566.965   125246181.744 6  23833572.113    97594537.608 7
  21113257.480   110950886.914 8  21113259.748    86455357.221 8
  22934848.198   120523420.746 7  22934850.324    93914477.119 7
  22707212.972   119327157.562 7  22707209.552    92982320.212 7
 92  8 14  7  0 15.0000000  0  6G26G 3G16G17G12G23                  -0.000000008
  21485013.600   112904476.512 8  21485014.213    87977631.609 8
  22289435.283   117131746.986 7  22289434.679    91271607.944 7
  23838477.597   125271973.289 6  23838479.576    97614634.850 7
  21107863.765   110922538.753 8  21107865.510    86433267.717 8
  22925636.455   120475018.712 7  22925640.211    93876761.245 7
  22701874.515   119299130.778 7  22701876.720    92960481.156 7
 92  8 14  7  0 30.0000000  0  6G26G 3G16G17G12G23                  -0.000000062
  21491249.200   112937246.807 8  21491249.700    88003166.885 8
  22295626.240   117164284.688 7  22295627.122    91296961.964 7
  23843394.782   125297846.269 6  23843402.788    97634795.580 7
  21102498.272   110894343.893 8  21102500.203    86411297.681 8
  22916443.358   120426716.657 7  22916447.908    93839123.300 7
  22696546.640   119271143.605 7  22696551.188    92938672.993 7
 92  8 14  7  0 45.0000000  0  6G26G 3G16G17G12G23                  -0.000000048
  21497474.740   112969954.245 8  21497474.693    88028653.191 8
  22301821.216   117196827.504 7  22301820.053    91322319.979 7
  23848310.335   125323650.675 6  23848313.437    97654902.863 7
  21097133.969   110866149.295 8  21097134.710    86389327.886 8
  22907242.541   120378364.042 7  22907247.442    93801445.932 7
  22691206.258   119243050.711 7  22691205.273    92916782.364 7
 92  8 14  7  0 60.0000000  0  6G26G 3G16G17G12G23                   0.000000027
  21503685.112   113002599.967 8  21503686.222    88054091.365 8
  22308010.655   117229376.227 7  22308013.372    91347682.586 7
  23853207.292   125349388.360 6  23853211.385    97674958.145 7
  21091765.836   110837955.565 8  21091769.618    86367358.731 8
  22898033.273   120329962.010 7  22898036.840    93763730.054 7
  22685839.341   119214855.372 7  22685839.394    92894811.988 7
 92  8 14  7  1 15.0000000  0  6G26G 3G16G17G12G23                   0.000000064
  21509919.039   113035342.475 8  21509916.669    88079605.002 8
  22314235.836   117262087.770 7  22314238.163    91373172.065 7
  23858130.620   125375218.621 6  23858127.196    97695085.567 7
  21086435.204   110809918.903 8  21086434.665    86345511.990 8
  22888847.149   120281668.603 7  22888846.427    93726098.850 7
  22680486.233   119186714.596 7  22680484.872    92872884.115 7
 92  8 14  7  1 30.0000000  0  6G26G 3G16G17G12G23                  -0.000000035
  21516193.989   113068335.560 8  21516195.773    88105313.886 8
  22320524.315   117295114.953 7  22320523.020    91398907.504 7
  23863084.965   125401296.878 6  23863089.217    97715406.214 7
  21081157.492   110782192.338 8  21081158.473    86323906.864 8
  22879702.387   120233637.555 7  22879705.686    93688672.043 7
  22675165.454   119158782.717 7  22675169.367    92851119.009 7
 92  8 14  7  1 45.0000000  0  6G26G 3G16G17G12G23                   0.000000020
  21522431.736   113101117.141 8  21522434.869    88130857.940 8
  22326778.823   117327995.615 7  22326780.488    91424528.790 7
  23868010.291   125427158.644 6  23868010.536    97735558.194 7
  21075854.024   110754313.425 8  21075853.291    86302183.033 8
  22870527.317   120185407.234 7  22870528.013    93651090.009 7
  22669805.751   119130601.288 7  22669806.616    92829159.439 7
 92  8 14  7  2  0.0000000  0  6G26G 3G16G17G12G23                  -0.000000073
  21528722.229   113134154.907 8  21528721.494    88156601.618 8
  22333094.826   117361196.436 7  22333097.898    91450399.528 7
  23872973.482   125453270.386 6  23872979.909    97755904.945 7
  21070605.862   110726747.147 8  21070607.600    86280702.804 8
  22861398.735   120137445.212 7  22861401.871    93613716.982 7
  22664484.362   119102642.201 7  22664486.176    92807373.127 7
 92  8 14  7  2 15.0000000  0  6G26G 3G16G17G12G23                  -0.000000020
  21534967.813   113166987.673 8  21534969.117    88182185.591 8
  22339387.453   117394252.412 7  22339388.477    91476157.398 7
  23877896.998   125479170.639 6  23877908.059    97776086.895 7
  21065333.171   110699028.971 8  21065333.005    86259104.218 8
  22852230.783   120089287.299 7  22852237.731    93576191.359 7
  22659119.416   119074444.218 7  22659121.014    92785400.686 7
 92  8 14  7  2 30.0000000  0  6G26G 3G16G17G12G23                  -0.000000122
  21541269.266   113200087.032 8  21541267.461    88207977.255 8
  22345735.157   117427632.824 7  22345740.797    91502168.084 7
  23882884.492   125505328.098 6  23882885.895    97796469.303 7
  21060114.423   110671628.266 8  21060118.826    86237753.029 8
  22843124.334   120041403.586 7  22843124.784    93538879.365 7
  22653800.136   119046481.210 7  22653799.585    92763611.325 7
 92  8 14  7  2 45.0000000  0  6G26G 3G16G17G12G23                   0.000000009
  21547496.939   113232831.675 8  21547498.800    88233492.548 8
  22352036.190   117460719.971 7  22352037.064    91527950.247 7
  23887790.430   125531124.978 6  23887795.595    97816570.701 7
  21054848.867   110643929.582 8  21054847.940    86216169.633 8
  22833943.374   119993177.317 7  22833948.367    93501300.472 7
  22648406.314   119018139.487 7  22648405.851    92741526.885 7
 92  8 14  7  2 60.0000000  0  6G26G 3G16G17G12G23                  -0.000000013
  21553778.989   113265836.068 8  21553778.593    88259210.248 8
  22358394.526   117494129.257 7  22358394.632    91553983.424 7
  23892743.643   125557175.284 6  23892752.060    97836869.596 7
  21049636.069   110616553.144 8  21049638.376    86194837.337 8
  22824823.783   119945224.546 7  22824822.765    93463934.658 7
  22643057.252   118990031.976 7  22643057.655    92719624.917 7
 92  8 14  7  3 15.0000000  0  6G26G 3G16G17G12G23                   0.000000012
  21560054.663   113298800.957 8  21560051.592    88284897.131 8
  22364753.020   117527560.364 7  22364756.600    91580033.618 7
  23897696.854   125583176.585 6  23897699.684    97857130.290 7
  21044430.877   110589201.675 8  21044433.561    86173524.491 8
  22815690.693   119897245.833 7  22815692.720    93426548.651 7
  22637694.908   118961852.667 7  22637695.066    92697667.011 7
 92  8 14  7  3 30.0000000  0  6G26G 3G16G17G12G23                   0.000000083
  21566317.307   113331726.376 8  21566317.330    88310553.284 8
  22371120.670   117561013.594 7  22371122.285    91606101.037 7
  23902636.644   125609128.359 6  23902638.375    97877352.403 7
  21039232.353   110561877.249 8  21039233.651    86152232.728 8
  22806554.402   119849242.298 7  22806558.446    93389143.325 7
  22632314.592   118933602.917 7  22632319.320    92675654.229 7
 92  8 14  7  3 45.0000000  0  6G26G 3G16G17G12G23                   0.000000100
  21572605.994   113364769.646 8  21572605.494    88336301.263 8
  22377523.846   117594648.511 7  22377523.279    91632310.035 7
  23907592.332   125635187.672 6  23907597.523    97897658.286 7
  21034069.473   110534740.129 8  21034069.872    86131086.916 8
  22797446.773   119801374.383 7  22797448.997    93351843.653 7
  22626961.776   118905441.681 7  22626960.171    92653710.410 7
 92  8 14  7  3 60.0000000  0  6G26G 3G16G17G12G23                  -0.000000026
  21578941.004   113398077.349 8  21578943.729    88362255.274 8
  22383985.292   117628610.638 7  22383985.804    91658773.994 7
  23912603.781   125661499.015 6  23912603.905    97918160.586 7
  21028970.568   110507937.203 8  21028969.197    86110201.506 8
  22788388.976   119753788.339 7  22788393.669    93314763.600 7
  22621644.830   118877511.939 7  22621645.802    92631946.959 7
 92  8 14  7  4 15.0000000  0  6G26G 3G16G17G12G23                   0.000000001
  21585245.035   113431188.257 8  21585244.282    88388055.986 8
  22390416.506   117662436.895 7  22390423.207    91685132.087 7
  23917566.071   125687602.023 6  23917571.856    97938500.512 6
  21023842.605   110481007.573 8  21023844.903    86089217.378 8
  22779299.160   119706022.035 7  22779303.807    93277543.133 7
  22616279.758   118849348.294 7  22616286.683    92610001.264 7
 92  8 14  7  4 30.0000000  0  6G26G 3G16G17G12G23                  -0.000000012
  21591566.943   113464410.110 8  21591567.403    88413943.110 8
  22396889.716   117696436.845 7  22396892.688    91711625.530 7
  23922554.679   125713806.339 6  23922558.118    97958919.422 6
  21018753.952   110454262.524 8  21018755.489    86068377.077 8
  22770234.688   119658385.913 7  22770238.714    93240424.095 7
  22610936.425   118821256.889 7  22610940.337    92588111.867 7
 92  8 14  7  4 45.0000000  0  6G26G 3G16G17G12G23                   0.000000033
  21597879.057   113497586.493 8  21597880.163    88439794.808 8
  22403364.374   117730459.403 7  22403367.205    91738136.592 7
  23927526.383   125739958.817 6  23927534.756    97979297.924 6
  21013671.764   110427552.445 8  21013672.728    86047564.021 8
  22761169.602   119610729.564 7  22761170.991    93203289.284 7
  22605583.865   118793083.997 7  22605579.215    92566158.970 7
 92  8 14  7  5  0.0000000  0  6G26G 3G16G17G12G23                   0.000000044
  21604214.607   113530870.028 8  21604213.320    88465730.028 8
  22409872.390   117764657.258 7  22409874.343    91764784.237 7
  23932527.769   125766212.279 6  23932531.095    97999755.095 6
  21008626.974   110401032.894 8  21008626.224    86026899.433 8
  22752120.558   119563206.520 7  22752127.417    93166258.359 7
  22600230.898   118764977.966 7  22600231.060    92544258.171 7
 92  8 14  7  5 15.0000000  0  6G26G 3G16G17G12G23                   0.000000017
  21610564.602   113564266.482 8  21610568.446    88491753.206 8
  22416414.443   117799034.979 7  22416416.687    91791572.039 7
  23937541.108   125792573.551 6  23937547.462    98020296.279 6
  21003616.191   110374709.051 8  21003616.715    86006387.330 8
  22743108.180   119515822.151 7  22743110.471    93129335.473 7
  22594895.422   118736941.854 7  22594895.963    92522411.839 7
 92  8 14  7  5 30.0000000  0  6G26G 3G16G17G12G23                  -0.000000052
  21616947.433   113597774.483 8  21616945.535    88517863.318 8
  22422993.311   117833590.162 7  22422992.069    91818498.131 7
  23942578.184   125819044.566 6  23942584.963    98040923.007 6
  20998642.909   110348574.279 8  20998643.436    85986022.582 8
  22734114.305   119468575.021 7  22734120.137    93092519.560 7
  22589575.289   118708976.363 7  22589573.820    92500620.554 7
 92  8 14  7  5 45.0000000  0  6G26G 3G16G17G12G23                  -0.000000074
  21623316.916   113631242.343 8  21623313.271    88543942.135 8
  22429563.333   117868174.857 7  22429573.799    91845447.214 7
  23947609.699   125845480.357 6  23947615.271    98061522.276 6
  20993679.570   110322481.755 8  20993678.189    85965690.725 8
  22725123.687   119421318.001 7  22725126.695    93055695.917 7
  22584234.830   118680937.061 7  22584238.849    92478771.739 7
 92  8 14  7  6  0.0000000  0  6G26G 3G16G17G12G23                   0.000000049
  21629643.416   113664513.323 8  21629644.770    88569867.564 8
  22436129.133   117902633.373 7  22436130.540    91872297.973 7
  23952603.956   125871725.352 6  23952610.000    98081972.854 6
  20988692.098   110296277.413 8  20988691.668    85945271.756 8
  22716096.714   119373895.939 7  22716102.583    93018743.686 7
  22578860.549   118652670.025 7  22578859.322    92456745.475 7
 92  8 14  7  6 15.0000000  0  6G26G 3G16G17G12G23                  -0.000000075
  21636052.481   113698199.187 8  21636055.703    88596116.262 8
  22442778.077   117937577.809 7  22442780.242    91899527.392 7
  23957680.428   125898393.392 6  23957684.012    98102753.086 6
  20983799.489   110270577.582 8  20983800.910    85925245.921 8
  22707164.502   119326921.848 7  22707164.205    92982140.523 7
  22573550.491   118624791.482 7  22573554.457    92435021.941 7
 92  8 14  7  6 30.0000000  0  6G26G 3G16G17G12G23                  -0.000000060
  21642428.218   113731689.912 8  21642427.548    88622212.900 8
  22449401.370   117972400.450 7  22449407.248    91926661.871 7
  23962718.408   125924877.160 6  23962723.937    98123389.738 6
  20978890.720   110244774.825 8  20978891.050    85905139.865 8
  22698191.620   119279789.038 7  22698194.645    92945413.673 7
  22568206.786   118596696.121 7  22568208.574    92413129.444 7
 92  8 14  7  6 45.0000000  0  6G26G 3G16G17G12G23                  -0.000000004
  21648791.945   113765135.524 8  21648793.499    88648274.408 8
  22456037.930   118007251.806 7  22456038.992    91953818.756 7
  23967752.399   125951325.958 6  23967756.961    98143999.130 6
  20973987.879   110219020.222 8  20973990.111    85885071.339 8
  22689221.881   119232648.738 7  22689223.906    92908680.996 7
  22562844.766   118568535.517 7  22562850.034    92391186.116 7
 92  8 14  7  6 60.0000000  0  6G26G 3G16G17G12G23                  -0.000000005
  21655175.555   113798695.619 8  21655178.298    88674425.093 8
  22462699.246   118042288.258 7  22462705.951    91981119.837 7
  23972807.932   125977896.965 6  23972813.975    98164703.754 6
  20969127.261   110193472.503 8  20969128.543    85865164.029 8
  22680274.377   119185658.286 7  22680281.924    92872065.078 7
  22557504.857   118540468.105 7  22557508.249    92369315.403 7
 92  8 14  7  7 15.0000000  0  6G26G 3G16G17G12G23                   0.000000028
  21661556.559   113832224.020 8  21661558.782    88700551.105 8
  22469378.616   118077361.585 7  22469380.423    92008449.685 7
  23977855.010   126004443.538 6  23977865.848    98185389.333 6
  20964278.442   110167982.785 8  20964278.252    85845301.897 8
  22671339.301   119138670.144 7  22671340.140    92835450.967 7
  22552156.089   118512349.138 7  22552158.363    92347404.513 7
 92  8 14  7  7 30.0000000  0  6G26G 3G16G17G12G23                  -0.000000002
  21667960.417   113865868.522 8  21667962.818    88726767.563 8
  22476086.119   118112618.750 7  22476090.121    92035922.778 7
  23982937.246   126031114.866 6  23982940.490    98206172.140 6
  20959464.327   110142693.439 8  20959465.606    85825595.916 8
  22662424.045   119091832.161 7  22662427.177    92798953.871 7
  22546826.348   118484328.160 7  22546825.415    92325569.980 7
 92  8 14  7  7 45.0000000  0  6G26G 3G16G17G12G23                   0.000000000
  21674356.869   113899478.104 8  21674357.039    88752956.829 8
  22482800.381   118147908.432 7  22482805.272    92063421.198 7
  23988008.925   126057757.722 6  23988010.691    98226932.767 6
  20954661.341   110117454.577 8  20954663.054    85805929.270 8
  22653506.437   119044993.816 7  22653514.387    92762456.488 7
  22541484.329   118456254.663 7  22541483.452    92303694.535 7
 92  8 14  7  8  0.0000000  0  6G26G 3G16G17G12G23                  -0.000000059
  21680777.544   113933209.977 8  21680776.971    88779241.379 8
  22489549.914   118183385.469 7  22489556.809    92091065.612 7
  23993104.421   126084522.734 6  23993103.889    98247788.561 6
  20949902.548   110092422.952 8  20949899.447    85786424.096 8
  22644625.411   118998310.710 7  22644631.627    92726080.068 7
  22536157.987   118428283.549 7  22536160.477    92281898.842 7
 92  8 14  7  8 15.0000000  0  6G26G 3G16G17G12G23                   0.000000019
  21687160.748   113966764.942 8  21687161.526    88805388.065 8
  22496281.312   118218742.205 7  22496284.961    92118616.270 7
  23998158.065   126111099.814 6  23998162.065    98268497.946 6
  20945117.232   110067289.949 8  20945116.550    85766839.934 8
  22635712.536   118951476.231 7  22635718.838    92689585.689 7
  22530803.729   118400106.733 7  22530799.099    92259942.895 7
 92  8 14  7  8 30.0000000  0  6G26G 3G16G17G12G23                   0.000000037
  21693569.831   114000454.903 8  21693572.756    88831639.978 8
  22503047.330   118254287.871 7  22503048.824    92146314.161 7
  24003238.672   126137798.583 6  24003241.680    98289302.120 6
  20940375.395   110042360.428 8  20940372.864    85747414.331 8
  22626831.702   118904800.137 7  22626836.191    92653214.732 7
  22525453.352   118372031.308 7  22525456.034    92238065.940 7
 92  8 14  7  8 45.0000000  0  6G26G 3G16G17G12G23                  -0.000000005
  21700008.497   114034285.321 8  21700010.215    88858001.296 8
  22509850.935   118290026.058 7  22509849.078    92174162.062 7
  24008344.411   126164621.424 5  24008346.621    98310203.001 6
  20935668.694   110017636.547 8  20935667.820    85728148.961 8
  22617980.363   118858287.034 7  22617985.294    92616970.788 7
  22520130.572   118344058.913 7  22520133.061    92216269.256 7
 92  8 14  7  8 60.0000000  0  6G26G 3G16G17G12G23                  -0.000000009
  21706444.139   114068100.845 8  21706445.094    88884351.052 8
  22516656.707   118325801.628 7  22516657.669    92202039.106 7
  24013438.580   126191414.462 5  24013444.424    98331080.654 6
  20930972.108   109992962.820 8  20930972.808    85708922.674 8
  22609129.362   118811782.713 7  22609135.821    92580733.680 7
  22514802.529   118316034.859 7  22514800.504    92194432.326 7
 92  8 14  7  9 15.0000000  0  6G26G 3G16G17G12G23                   0.000000020
  21712876.729   114101900.337 8  21712877.405    88910688.288 8
  22523468.531   118361615.004 7  22523472.721    92229945.604 7
  24018528.949   126218180.530 5  24018539.284    98351937.251 6
  20926284.267   109968339.047 8  20926286.812    85689735.304 8
  22600281.208   118765288.348 7  22600288.005    92544504.351 7
  22509452.781   118287960.743 7  22509458.181    92172556.404 7
 92  8 14  7  9 30.0000000  0  6G26G 3G16G17G12G23                  -0.000000018
  21719334.179   114135839.465 8  21719336.039    88937134.316 8
  22530317.984   118397622.124 7  22530324.394    92258003.059 7
  24023651.871   126245076.669 5  24023656.708    98372895.247 6
  20921640.976   109943920.392 8  20921640.339    85670707.772 8
  22591470.457   118718960.537 7  22591471.876    92508404.775 7
  22504135.167   118259993.492 7  22504135.696    92150763.720 7
 92  8 14  7  9 45.0000000  0  6G26G 3G16G17G12G23                  -0.000000022
  21725792.296   114169763.096 8  21725791.489    88963568.303 8
  22537180.770   118433669.308 7  22537183.695    92286091.748 7
  24028763.991   126271948.040 5  24028770.149    98393833.934 6
  20917006.363   109919558.335 8  20917004.148    85651724.344 8
  22582654.928   118672646.620 7  22582659.126    92472316.036 7
  22498801.918   118231978.079 7  22498804.298    92128933.534 7
 92  8 14  7  9 60.0000000  0  6G26G 3G16G17G12G23                   0.000000011
  21732243.164   114203676.639 8  21732245.742    88989994.393 8
  22544052.077   118469760.272 7  22544052.055    92314214.536 7
  24033879.554   126298796.502 5  24033879.722    98414754.780 6
  20912381.544   109895263.747 8  20912381.041    85632793.495 8
  22573844.457   118626351.286 7  22573849.916    92436241.795 7
  22493462.618   118203919.868 7  22493465.490    92107070.008 7
 92  8 14  7 10 15.0000000  0  6G26G 3G16G17G12G23                  -0.000000018
  21738727.858   114237730.935 8  21738724.834    89016530.189 8
  22550955.367   118506046.304 7  22550957.299    92342489.355 7
  24039012.236   126325775.929 5  24039012.983    98435777.628 6
  20907801.084   109871188.269 8  20907799.871    85614033.370 8
  22565066.601   118580226.339 7  22565072.146    92400300.294 7
  22488149.296   118175969.171 7  22488146.645    92085290.226 7
 92  8 14  7 10 30.0000000  0  6G26G 3G16G17G12G23                  -0.000000019
  21745204.382   114271771.301 8  21745203.229    89043055.134 8
  22557873.369   118542377.652 7  22557870.911    92370799.441 7
  24044132.625   126352742.754 5  24044145.089    98456790.744 5
  20903231.127   109847179.982 8  20903231.002    85595325.614 8
  22556296.865   118534123.064 7  22556298.504    92364375.698 7
  22482816.738   118147976.393 7  22482819.550    92063477.664 7
 92  8 14  7 10 45.0000000  0  6G26G 3G16G17G12G23                  -0.000000089
  21751703.043   114305941.993 8  21751705.684    89069681.602 8
  22564818.907   118578904.697 7  22564822.013    92399262.044 7
  24049290.514   126379851.645 5  24049303.718    98477914.466 5
  20898704.340   109823391.552 8  20898704.213    85576789.170 8
  22547557.174   118488192.680 7  22547558.250    92328585.818 7
  22477512.799   118120092.005 7  22477513.574    92041749.578 7
 92  8 14  7 11  0.0000000  0  6G26G 3G16G17G12G23                  -0.000000036
  21758172.403   114339934.709 8  21758173.789    89096169.412 8
  22571750.617   118615319.082 7  22571751.431    92427636.851 7
  24054427.484   126406797.603 4  24054431.348    98498911.255 5
  20894160.952   109799516.887 8  20894161.255    85558185.517 8
  22538785.192   118442127.603 7  22538792.608    92292690.979 7
  22472171.819   118092008.963 7  22472169.059    92019866.683 7
 92  8 14  7 11 15.0000000  0  6G26G 3G16G17G12G23                   0.000000037
  21764639.685   114373912.503 8  21764640.272    89122645.578 8
  22578686.452   118651782.138 7  22578690.111    92456049.586 7
  24059555.344   126433744.693 5  24059559.445    98519908.953 5
  20889633.763   109775719.348 8  20889632.489    85539641.979 8
  22530031.200   118396090.062 7  22530031.470    92256817.585 7
  22466816.662   118063890.424 7  22466819.008    91997956.121 7
 92  8 14  7 11 30.0000000  0  6G26G 3G16G17G12G23                   0.000000034
  21771130.862   114408029.872 8  21771132.578    89149230.484 8
  22585666.964   118688446.979 7  22585667.189    92484619.555 7
  24064709.394   126460845.405 5  24064715.784    98541026.300 5
  20885149.909   109752152.536 8  20885148.114    85521278.213 8
  22521302.214   118350233.934 7  22521306.078    92221085.562 7
  22461490.224   118035888.802 7  22461490.231    91976136.669 7
 92  8 14  7 11 45.0000000  0  6G26G 3G16G17G12G23                   0.000000056
  21777623.477   114442133.792 8  21777621.848    89175804.960 8
  22592651.442   118725159.658 7  22592653.375    92513226.816 7
  24069861.459   126487945.689 5  24069874.977    98562143.334 5
  20880679.256   109728664.098 8  20880678.413    85502975.533 8
  22512584.522   118304406.150 7  22512584.859    92185375.627 7
  22456154.683   118007850.349 7  22456154.693    91954288.533 7
 92  8 14  7 12  0.0000000  0  6G26G 3G16G17G12G23                   0.000000099
  21784110.375   114476223.672 8  21784109.417    89202368.469 8
  22599644.233   118761919.023 7  22599648.438    92541870.430 7
  24075021.833   126515046.639 5  24075030.159    98583260.943 5
  20876224.329   109705251.297 8  20876222.860    85484731.787 8
  22503865.860   118258606.272 7  22503869.437    92149687.431 7
  22450811.386   117979774.131 7  22450811.719    91932410.946 7
 92  8 14  7 12 15.0000000  0  6G26G 3G16G17G12G23                  -0.000000037
  21790650.587   114510605.720 8  21790652.095    89229159.643 8
  22606708.396   118799032.450 7  22606710.639    92570789.964 7
  24080248.421   126542459.544 4  24080247.140    98604621.607 5
  20871839.456   109682216.638 8  20871839.509    85466782.700 8
  22495214.053   118213142.723 7  22495217.526    92114261.304 7
  22445520.629   117951969.016 7  22445521.071    91910744.627 7
 92  8 14  7 12 30.0000000  0  6G26G 3G16G17G12G23                   0.000000033
  21797133.186   114544664.004 8  21797132.919    89255698.534 8
  22613719.770   118835886.469 7  22613723.960    92599507.342 7
  24085393.352   126569573.337 4  24085406.957    98625749.195 5
  20867410.972   109658942.796 8  20867410.887    85448647.234 8
  22486511.920   118167402.705 7  22486514.470    92078619.744 7
  22440165.042   117923820.215 7  22440164.284    91888810.479 7
 92  8 14  7 12 45.0000000  0  6G26G 3G16G17G12G23                   0.000000018
  21803641.795   114578860.977 8  21803640.622    89282345.492 8
  22620773.839   118872942.851 7  22620775.058    92628382.407 7
  24090597.703   126596847.391 4  24090596.295    98647001.669 5
  20863026.193   109635894.628 8  20863024.720    85430687.610 8
  22477842.007   118121849.004 7  22477844.918    92043123.376 7
  22434832.188   117895790.881 7  22434830.235    91866969.441 7
 92  8 14  7 12 60.0000000  0  6G26G 3G16G17G12G23                   0.000000022
  21810145.324   114613046.254 8  21810145.372    89308983.356 8
  22627827.758   118910046.445 7  22627835.875    92657294.274 7
  24095800.184   126624124.611 5  24095786.719    98668256.585 5
  20858650.880   109612922.202 8  20858653.458    85412787.024 8
  22469177.783   118076327.199 7  22469182.410    92007651.855 7
  22429487.776   117867726.807 7  22429490.308    91845101.331 7
 92  8 14  7 13 15.0000000  0  6G26G 3G16G17G12G23                   0.000000045
  21816648.911   114647224.834 8  21816649.333    89335615.987 8
  22634906.539   118947200.691 7  22634905.592    92686245.582 7
  24100980.146   126651404.493 5  24100978.635    98689513.614 5
  20854297.770   109590029.456 8  20854296.866    85394948.508 8
  22460525.009   118030841.564 7  22460527.025    91972208.502 7
  22424142.580   117839631.610 7  22424143.726    91823208.974 7
 92  8 14  7 13 30.0000000  0  6G26G 3G16G17G12G23                  -0.000000109
  21823212.715   114681703.853 8  21823209.730    89362482.715 8
  22642043.830   118984715.406 7  22642044.887    92715477.802 7
