     2              OBSERVATION DATA                        RINEX VERSION / TYPE
OBSTORNX                                20-OCT-92 14:06     PGM / RUN BY / DATE
                                                            OBSERVER / AGENCY
BH4979                                                      MARKER NAME
BH4979                                                      MARKER NUMBER
100122              SR299                                   REC # / TYPE / VERS
     0              SR299                                   ANT # / TYPE
  5247778.6735  2508010.2213 -2611485.4710                  APPROX POSITION XYZ
        1.9910        0.0000        0.0000                  ANTENNA: DELTA H/E/N
     1     1                                                WAVELENGTH FACT L1/2
     4    C1    L1    P2    L2                              # / TYPES OF OBSERV
  1992     8    14     6    43   30.000000                  TIME OF FIRST OBS
                                                            END OF HEADER
 92  8 14  6 43 30.0000000  0  5G26G 3G17G12G16                     -0.000000148
  21093005.332   110844502.160 8  21093000.003    86372459.952 7
  21914941.190   115163783.246 7  21914937.146    89738133.150 6
  21505982.754   113014683.159 8  21505978.327    88063511.150 7
  23562708.295   123822879.827 5  23562709.212    96485482.307 5
  23537018.772   123687850.471 6  23537015.114    96380264.273 5
 92  8 14  6 43 45.0000000  0  5G26G 3G17G12G16                     -0.000000119
  21098628.757   110874066.455 8  21098625.895    86395497.037 7
  21919592.230   115188216.623 7  21919587.388    89757172.113 6
  21499397.378   112980087.772 8  21499395.777    88036553.710 7
  23553043.271   123772116.783 5  23553047.615    96445926.682 5
  23541582.646   123711836.789 5  23541579.545    96398954.852 5
 92  8 14  6 43 60.0000000  0  5G26G 3G17G12G16                     -0.000000056
  21104254.677   110903624.868 8  21104250.669    86418529.548 7
  21924252.984   115212721.050 8  21924250.662    89776266.444 7
  21492820.257   112945513.768 8  21492816.315    88009612.913 7
  23543375.376   123721316.652 5  23543381.157    96406342.151 5
  23546134.445   123735784.654 5  23546135.924    96417615.465 6
 92  8 14  6 44 15.0000000  0  6G26G 3G17G12G23G16                  -0.000000051
  21109902.567   110933317.730 8  21109901.025    86441666.811 7
  21928955.739   115237438.198 7  21928954.170    89795526.523 7
  21486272.870   112911105.021 8  21486268.791    87982800.899 7
  23533730.565   123670621.825 5  23533734.743    96366839.702 5
  23034247.141   121045769.72017  23034242.788    94321499.64516
  23550707.596   123759834.729 5  23550712.247    96436355.742 6
 92  8 14  6 44 30.0000000  0  6G26G 3G17G12G23G16                   0.000000048
  21115487.341   110962660.911 8  21115485.084    86464531.600 7
  21933610.194   115261880.521 7  21933605.142    89814572.473 7
  21479664.373   112876377.131 8  21479660.776    87955740.181 7
  23524010.502   123619545.553 5  23524014.769    96327040.032 5
  23028850.539   121017410.382 6  23028846.677    94299401.470 6
  23555208.699   123783500.184 5  23555215.369    96454796.275 6
 92  8 14  6 44 45.0000000  0  6G26G 3G17G12G23G16                   0.000000070
  21121146.259   110992391.729 8  21121142.670    86487698.467 7
  21938346.454   115286782.735 7  21938343.872    89833976.779 6
  21473134.025   112842067.923 8  21473131.952    87929005.736 7
  23514363.499   123568823.209 5  23514363.857    96287516.162 5
  23023515.760   120989378.931 6  23023512.462    94277558.754 6
  23559786.902   123807517.800 5  23559785.755    96473511.240 6
 92  8 14  6 45  0.0000000  0  6G26G 3G17G12G23G16                  -0.000000066
  21126869.896   111022467.645 8  21126865.917    86511134.209 7
  21943161.647   115312098.746 7  21943160.855    89853703.522 6
  21466677.985   112808133.202 8  21466674.142    87902563.086 7
  23504764.182   123518409.457 5  23504769.710    96248232.731 5
  23018232.888   120961628.248 6  23018231.933    94255934.867 6
  23564417.908   123831844.902 5  23564416.259    96492467.378 6
 92  8 14  6 45 15.0000000  0  6G26G 3G17G12G23G16                  -0.000000044
  21132558.654   111052373.267 8  21132556.274    86534437.268 7
  21947961.988   115337310.709 7  21947958.766    89873349.166 7
  21460190.177   112774058.543 8  21460190.195    87876011.404 7
  23495137.375   123467787.243 5  23495135.885    96208786.830 5
  23012907.956   120933640.544 6  23012905.561    94234126.267 6
  23569009.831   123855965.622 6  23569006.023    96511262.695 6
 92  8 14  6 45 30.0000000  0  6G26G 3G17G12G23G16                  -0.000000030
  21138268.804   111082359.309 8  21138263.396    86557802.981 7
  21952784.843   115362668.985 7  21952783.786    89893108.814 6
  21453728.374   112740097.539 8  21453727.138    87849548.265 7
  23485511.076   123417207.700 5  23485511.155    96169374.171 5
  23007585.821   120905666.538 6  23007582.527    94212328.330 6
  23573610.562   123880130.626 6  23573603.964    96530092.496 6
 92  8 14  6 45 45.0000000  0  6G26G 3G17G12G23G16                  -0.000000079
  21144008.808   111112518.232 8  21144001.952    86581303.406 7
  21957656.315   115388266.744 7  21957654.630    89913055.106 7
  21447308.699   112706344.918 8  21447303.977    87823247.496 7
  23475911.297   123366764.523 5  23475911.900    96130067.825 5
  23002280.820   120877798.568 6  23002278.936    94190613.011 6
  23578232.725   123904434.257 6  23578228.049    96549030.350 6
 92  8 14  6 46  0.0000000  0  6G26G 3G17G12G23G16                  -0.000000058
  21149738.487   111142639.902 8  21149734.395    86604774.804 7
  21962534.255   115413894.490 7  21962531.909    89933024.749 7
  21440883.869   112672590.209 8  21440881.398    87796945.109 7
  23466301.392   123316249.133 6  23466299.872    96090705.178 5
  22996958.143   120849826.712 6  22996957.290    94168816.762 6
  23582840.453   123928669.033 6  23582839.761    96567914.541 6
 92  8 14  6 46 15.0000000  0  6G26G 3G17G12G23G16                  -0.000000031
  21155482.375   111172823.238 8  21155478.331    86628294.262 7
  21967436.121   115439649.968 7  21967433.982    89953093.917 7
  21434477.960   112638928.928 8  21434475.377    87770715.526 7
  23456694.184   123265759.913 6  23456691.358    96051362.919 5
  22991638.843   120821849.602 6  22991632.936    94147016.425 6
  23587459.844   123952931.096 6  23587457.640    96586819.983 6
 92  8 14  6 46 30.0000000  0  6G26G 3G17G12G23G16                  -0.000000071
  21161259.915   111203182.412 8  21161255.243    86651950.750 7
  21972383.533   115465645.796 7  21972380.085    89973350.383 7
  21428112.111   112605471.167 8  21428109.066    87744644.544 7
  23447108.395   123215410.253 6  23447109.900    96012129.448 5
  22986331.916   120793982.512 6  22986329.760    94125301.802 6
  23592103.760   123977336.035 6  23592101.976    96605836.762 6
 92  8 14  6 46 45.0000000  0  6G26G 3G17G12G23G16                  -0.000000063
  21167035.580   111233532.736 8  21167029.732    86675600.314 7
  21977338.398   115491698.787 7  21977337.555    89993651.395 7
  21421750.132   112572032.745 8  21421744.965    87718588.614 7
  23437520.359   123165017.781 6  23437520.771    95972862.568 5
  22981013.347   120766043.244 6  22981012.599    94103530.916 6
  23596740.775   124001700.716 6  23596738.405    96624822.164 6
 92  8 14  6 46 60.0000000  0  6G26G 3G17G12G23G16                  -0.000000081
  21172831.431   111263986.139 8  21172825.063    86699330.227 7
  21982332.576   115517923.368 7  21982327.673    90014086.095 7
  21415410.843   112538727.556 8  21415407.438    87692636.502 7
  23427943.417   123114697.611 6  23427945.401    95933652.030 5
  22975708.360   120738147.345 6  22975704.919    94081793.857 6
  23601391.054   124026138.097 6  23601387.697    96643864.239 6
 92  8 14  6 47 15.0000000  0  6G26G 3G17G12G23G16                  -0.000000018
  21178610.700   111294362.403 8  21178605.711    86723000.015 7
  21987318.635   115544142.286 7  21987317.205    90034516.393 7
  21409065.102   112505377.461 8  21409061.612    87666649.407 7
  23418348.384   123064273.375 6  23418350.480    95894360.432 5
  22970373.532   120710119.637 6  22970370.693    94059954.091 6
  23606018.721   124050472.651 6  23606019.613    96662826.160 6
 92  8 14  6 47 30.0000000  0  6G26G 3G17G12G23G16                  -0.000000060
  21184429.321   111324948.463 8  21184425.795    86746833.288 7
  21992364.942   115570647.806 7  21992360.791    90055170.035 7
  21402765.121   112472271.834 8  21402761.089    87640852.815 7
  23408788.678   123014037.778 6  23408790.968    95855215.830 5
  22965069.561   120682253.082 6  22965068.103    94038239.871 6
  23610691.843   124074996.073 6  23610685.766    96681935.274 6
 92  8 14  6 47 45.0000000  0  6G26G 3G17G12G23G16                  -0.000000007
  21190228.359   111355422.616 8  21190224.585    86770579.361 7
  21997398.991   115597119.913 7  21997398.507    90075797.639 7
  21396449.830   112439088.756 8  21396446.557    87614995.864 7
  23399209.125   122963671.890 6  23399206.172    95815969.692 5
  22959737.046   120654227.527 6  22959735.506    94016401.779 6
  23615331.349   124099388.840 6  23615328.035    96700942.590 6
 92  8 14  6 47 60.0000000  0  6G26G 3G17G12G23G16                  -0.000000041
  21196061.318   111386073.018 7  21196057.406    86794462.790 7
  22002486.924   115623846.184 7  22002484.339    90096623.271 6
  21390174.750   112406111.988 8  21390171.283    87589299.665 7
  23389655.998   122913463.870 6  23389652.392    95776846.558 5
  22954431.139   120626329.798 6  22954426.018    93994663.313 6
  23620002.020   124123937.380 6  23619999.206    96720071.257 6
 92  8 14  6 48 15.0000000  0  6G26G 3G17G12G23G16                   0.000000040
  21201868.987   111416582.526 8  21201863.163    86818236.392 7
  22007560.368   115650508.309 7  22007557.963    90117398.914 7
  21383880.024   112373023.984 8  21383874.350    87563516.778 7
  23380070.362   122863096.009 5  23380067.217    95737598.870 5
  22949086.597   120598244.039 6  22949082.197    93972778.258 6
  23624642.862   124148322.174 6  23624639.705    96739072.325 6
 92  8 14  6 48 30.0000000  0  6G26G 3G17G12G23G16                  -0.000000055
  21207733.674   111447402.663 8  21207728.765    86842252.054 7
  22012708.851   115677556.770 7  22012705.842    90138475.618 7
  21377647.613   112340278.440 8  21377643.077    87538000.757 7
  23370535.104   122813019.892 6  23370538.049    95698578.519 5
  22943792.068   120570426.102 6  22943788.129    93951101.936 6
  23629336.261   124172995.150 6  23629334.808    96758297.987 6
 92  8 14  6 48 45.0000000  0  6G26G 3G17G12G23G16                  -0.000000034
  21213571.520   111478075.751 8  21213565.656    86866153.145 7
  22017841.948   115704534.376 8  22017839.259    90159497.101 7
  21371396.202   112307420.057 8  21371390.334    87512396.818 7
  23360980.452   122762778.854 6  23360977.504    95659429.685 6
  22938462.609   120542418.604 7  22938457.991    93929277.913 6
  23633994.626   124197499.025 6  23633996.993    96777391.854 6
 92  8 14  6 49  0.0000000  0  6G26G 3G17G12G23G16                  -0.000000082
  21219434.103   111508895.833 8  21219430.021    86890168.741 7
  22023018.604   115731735.889 8  22023015.035    90180693.039 7
  21365179.066   112274745.785 8  21365172.865    87486936.321 8
  23351443.616   122712668.444 6  23351440.831    95620382.605 5
  22933154.233   120514515.903 7  22933148.035    93907535.530 7
  23638688.459   124222125.284 7  23638683.199    96796581.082 6
 92  8 14  6 49 15.0000000  0  6G26G 3G17G12G23G16                  -0.000000101
  21225298.475   111539710.318 8  21225293.817    86914180.003 7
  22028208.876   115759006.951 8  22028205.031    90201943.207 7
  21358966.625   112242103.187 8  21358960.938    87461500.522 7
  23341899.163   122662535.003 6  23341900.760    95581317.611 5
  22927834.288   120486561.400 7  22927828.473    93885752.814 7
  23643367.441   124246720.496 7  23643363.253    96815746.121 6
 92  8 14  6 49 30.0000000  0  6G26G 3G17G12G23G16                   0.000000013
  21231133.857   111570366.456 8  21231127.236    86938067.880 7
  22033381.062   115786192.975 8  22033378.107    90223127.087 7
  21352732.907   112209340.778 8  21352726.457    87435971.363 8
  23332326.948   122612224.675 6  23332328.010    95542114.797 6
  22922473.649   120458399.055 7  22922469.846    93863808.132 7
  23648013.122   124271129.718 7  23648009.143    96834766.267 6
 92  8 14  6 49 45.0000000  0  6G26G 3G17G12G23G16                   0.000000065
  21236995.908   111601175.741 8  21236990.287    86962075.094 7
  22038596.889   115813603.331 8  22038593.629    90244485.776 7
  21346533.086   112176771.500 8  21346528.726    87410592.690 8
  23322779.156   122562047.690 6  23322779.162    95503015.863 6
  22917136.594   120430338.639 7  22917129.880    93841942.863 7
  23652677.390   124295659.613 7  23652677.499    96853880.404 6
 92  8 14  6 49 60.0000000  0  6G26G 3G17G12G23G16                   0.000000057
  21242888.480   111632141.416 8  21242882.851    86986204.157 7
  22043857.690   115841238.026 8  22043852.821    90266019.289 7
  21340371.426   112144399.756 8  21340369.074    87385367.946 7
  23313256.340   122512004.955 6  23313256.839    95464021.538 6
  22911815.279   120402381.942 7  22911810.388    93820158.432 7
  23657372.163   124320309.808 7  23657368.755    96873088.312 6
 92  8 14  6 50 15.0000000  0  6G26G 3G17G12G23G16                  -0.000000006
  21248808.370   111663252.652 8  21248803.608    87010446.669 7
  22049153.793   115869087.234 8  22049152.586    90287719.943 7
  21334249.709   112112217.914 8  21334244.583    87360291.180 7
  23303757.151   122462087.380 6  23303757.607    95425124.772 5
  22906508.183   120374519.964 6  22906508.422    93798447.768 6
  23662080.017   124345072.748 6  23662079.506    96892384.052 6
 92  8 14  6 50 30.0000000  0  6G26G 3G17G12G23G16                   0.000000065
  21254697.101   111694204.142 8  21254692.738    87034564.671 7
  22054438.370   115896849.875 7  22054435.146    90309353.143 7
  21328105.783   112079927.365 8  21328100.376    87335129.678 7
  23294228.571   122411994.355 6  23294225.712    95386091.256 5
  22901169.222   120346452.534 6  22901167.612    93776577.044 6
  23666756.115   124369648.812 6  23666756.650    96911534.173 6
 92  8 14  6 50 45.0000000  0  6G26G 3G17G12G23G16                  -0.000000025
  21260646.181   111725461.768 8  21260640.617    87058921.240 7
  22059793.521   115924991.381 8  22059790.531    90331281.548 7
  21322025.203   112047993.703 8  21322023.114    87310246.307 7
  23284750.611   122362192.338 6  23284748.223    95347284.523 5
  22895877.733   120318643.573 6  22895875.008    93754907.716 6
  23671488.848   124394505.489 6  23671487.685    96930902.971 6
 92  8 14  6 50 60.0000000  0  6G26G 3G17G12G23G16                   0.000000018
  21266562.941   111756560.549 8  21266559.734    87083154.037 8
  22065132.384   115953047.298 8  22065129.395    90353143.305 7
  21315930.385   112015953.217 8  21315926.014    87285279.700 8
  23275239.002   122312217.496 6  23275238.092    95308343.126 6
  22890548.216   120290627.772 7  22890543.536    93733077.229 7
  23676184.633   124419178.006 6  23676182.945    96950128.274 6
 92  8 14  6 51 15.0000000  0  6G26G 3G17G12G23G16                  -0.000000097
  21272540.493   111787966.798 8  21272536.874    87107626.427 7
  22070543.754   115981481.236 7  22070540.674    90375299.587 7
  21309900.474   111984269.822 8  21309897.109    87260591.344 7
  23265787.834   122262534.274 6  23265783.215    95269628.984 5
  22885266.076   120262869.938 7  22885261.390    93711447.725 6
  23680936.057   124444131.910 6  23680930.527    96969572.828 6
 92  8 14  6 51 30.0000000  0  6G26G 3G17G12G23G16                  -0.000000085
  21278487.918   111819227.728 8  21278485.135    87131985.558 7
  22075938.563   116009839.153 7  22075936.756    90397396.639 7
  21303855.254   111952488.980 8  21303849.411    87235827.031 8
  23256298.509   122212689.530 6  23256298.560    95230788.909 5
  22879947.593   120234917.119 7  22879942.386    93689666.291 6
  23685654.263   124468917.247 6  23685647.245    96988886.002 6
 92  8 14  6 51 45.0000000  0  6G26G 3G17G12G23G16                   0.000000041
  21284412.994   111850352.213 8  21284407.919    87156238.370 7
  22081323.491   116038131.136 7  22081320.779    90419442.314 7
  21297788.583   111920618.408 8  21297784.886    87210992.813 7
  23246785.615   122162693.935 6  23246784.234    95191831.335 5
  22874593.022   120206782.662 7  22874588.818    93667743.327 6
  23690338.745   124493545.370 6  23690334.057    97008076.715 6
 92  8 14  6 52  0.0000000  0  6G26G 3G17G12G23G16                   0.000000086
  21290368.495   111881646.579 8  21290362.791    87180623.575 7
  22086752.052   116066662.421 7  22086749.853    90441674.466 7
  21291763.950   111888959.747 8  21291760.685    87186323.716 7
  23237300.167   122112853.570 6  23237299.202    95152994.715 5
  22869264.704   120178774.157 7  22869258.490    93645918.523 6
  23695054.868   124518323.762 6  23695049.947    97027384.494 6
 92  8 14  6 52 15.0000000  0  6G26G 3G17G12G23G16                  -0.000000052
  21296385.464   111913267.964 8  21296380.132    87205263.580 7
  22092259.169   116095590.513 8  22092254.678    90464215.801 7
  21285809.593   111857667.391 8  21285805.947    87161940.063 8
  23227874.147   122063326.499 6  23227875.256    95114402.232 5
  22863986.490   120151047.959 7  22863982.360    93624313.653 6
  23699819.277   124543412.899 6  23699823.012    97046934.399 6
 92  8 14  6 52 30.0000000  0  6G26G 3G17G12G23G16                   0.000000112
  21302316.665   111944449.639 8  21302313.802    87229560.970 7
  22097693.655   116124148.928 8  22097688.419    90486469.065 7
  21279778.504   111825974.803 8  21279775.287    87137244.517 8
  23218369.888   122013347.286 6  23218364.289    95075457.412 5
  22858615.497   120122836.198 7  22858614.086    93602330.468 6
  23704513.608   124568046.776 6  23704511.161    97066129.582 5
 92  8 14  6 52 45.0000000  0  6G26G 3G17G12G23G16                  -0.000000007
  21308346.034   111976124.183 8  21308341.013    87254242.387 7
  22103234.875   116153266.238 8  22103229.257    90509157.871 7
  21273847.657   111794810.988 8  21273844.766    87112961.026 8
  23208956.817   121963845.261 6  23208943.642    95036884.435 5
  22853336.491   120095066.833 7  22853329.260    93580691.991 6
  23709290.057   124593153.182 6  23709287.766    97085692.984 5
 92  8 14  6 53  0.0000000  0  6G26G 3G17G12G23G16                  -0.000000021
  21314352.605   112007680.927 8  21314346.053    87278832.026 7
  22108761.654   116182330.657 8  22108761.488    90531805.429 7
  21267904.200   111763562.911 8  21267898.208    87088611.863 8
  23199501.916   121914209.423 6  23199499.244    94998207.205 5
  22848015.663   120067127.696 7  22848013.598    93558921.240 6
  23714042.324   124618119.518 6  23714037.711    97105147.212 5
 92  8 14  6 53 15.0000000  0  6G26G 3G17G12G23G16                  -0.000000028
  21320363.544   112039276.625 8  21320358.752    87303452.020 7
  22114315.066   116211501.035 8  22114312.421    90554535.575 7
  21261970.675   111732389.028 8  21261966.017    87064320.534 8
  23190063.878   121864599.200 6  23190057.762    94959549.917 6
  22842701.005   120039174.979 7  22842693.878    93537139.877 6
  23718801.988   124643103.720 6  23718793.991    97124615.386 5
 92  8 14  6 53 30.0000000  0  6G26G 3G17G12G23G16                   0.000000065
  21326353.660   112070762.901 8  21326350.873    87327986.756 7
  22119856.999   116240629.092 8  22119855.296    90577232.718 7
  21256024.112   111701140.628 8  21256019.399    87039971.127 8
  23180593.139   121814867.126 6  23180594.311    94920797.664 6
  22837347.298   120011059.060 7  22837343.596    93515231.366 6
  23723525.273   124667958.751 6  23723523.486    97143982.877 5
 92  8 14  6 53 45.0000000  0  6G26G 3G17G12G23G16                   0.000000058
  21332385.000   112102451.806 8  21332381.307    87352679.375 7
  22125453.435   116270029.559 8  22125450.016    90600142.163 7
  21250123.847   111670134.528 8  21250119.618    87015810.508 8
  23171169.034   121765329.121 6  23171167.547    94882196.644 6
  22832027.091   119983095.184 7  22832022.970    93493441.294 6
  23728294.796   124692998.761 6  23728288.185    97163494.523 5
 92  8 14  6 53 60.0000000  0  6G26G 3G17G12G23G16                  -0.000000053
  21338455.493   112134349.459 8  21338450.735    87377534.669 7
  22131101.962   116299708.768 8  22131097.286    90623268.789 7
  21244270.056   111639378.650 8  21244266.969    86991844.890 8
  23161783.300   121715991.759 6  23161779.455    94843751.976 6
  22826736.067   119955289.666 7  22826731.758    93471774.664 6
  23733090.196   124718228.757 6  23733087.819    97183154.223 5
 92  8 14  6 54 15.0000000  0  6G26G 3G17G12G23G16                  -0.000000075
  21344508.961   112166159.647 8  21344503.763    87402321.804 7
  22136741.744   116329370.025 8  22136741.388    90646381.443 7
  21238410.290   111608580.368 8  21238406.252    86967846.234 8
  23152374.527   121666559.322 6  23152373.021    94805233.201 6
  22821417.911   119927344.563 7  22821413.735    93449999.250 6
  23737872.887   124743351.970 6  23737869.823    97202730.730 5
 92  8 14  6 54 30.0000000  0  6G26G 3G17G12G23G16                  -0.000000011
  21350544.646   112197885.387 8  21350540.961    87427043.122 7
  22142387.032   116359018.213 8  22142383.731    90669483.894 7
  21232543.904   111577748.305 8  21232538.857    86943821.232 8
  23142951.415   121617037.533 6  23142949.103    94766644.830 6
  22816072.202   119899263.675 7  22816070.610    93428118.045 6
  23742640.019   124768374.416 6  23742631.666    97222228.681 6
 92  8 14  6 54 45.0000000  0  6G26G 3G17G12G23G16                   0.000000035
  21356598.708   112229687.701 8  21356592.979    87451824.126 7
  22148057.702   116388814.785 8  22148053.335    90692701.974 7
  21226702.461   111547046.314 8  21226696.705    86919897.596 8
  23133541.270   121567588.885 6  23133539.348    94728113.459 6
  22810736.100   119871211.270 7  22810731.919    93406258.997 6
  23747409.874   124793457.175 6  23747406.217    97241773.666 6
 92  8 14  6 55  0.0000000  0  6G26G 3G17G12G23G16                  -0.000000039
  21362692.106   112261722.723 8  21362688.791    87476786.453 7
  22153783.530   116418918.212 8  22153782.062    90716159.157 7
  21220913.760   111516632.485 8  21220909.389    86896198.503 8
  23124175.849   121518372.269 6  23124173.251    94689762.855 6
  22805434.145   119843347.306 7  22805429.824    93384546.808 6
  23752220.916   124818758.371 6  23752219.882    97261488.821 6
 92  8 14  6 55 15.0000000  0  6G26G 3G17G12G23G16                  -0.000000042
  21368777.247   112293686.352 8  21368771.508    87501693.163 7
  22159514.952   116449024.039 7  22159511.490    90739618.205 7
  21215124.091   111486204.568 8  21215118.904    86872488.437 8
  23114796.218   121469083.974 6  23114794.500    94651356.437 6
  22800107.506   119815367.630 7  22800105.224    93362744.459 6
  23757019.666   124843976.972 6  23757019.538    97281139.608 6
                            3  7
BH6850                                                      MARKER NAME
BH6850                                                      MARKER NUMBER
  5248488.0386  2503797.9754 -2614119.0672                  APPROX POSITION XYZ
        1.9910        0.0000        0.0000                  ANTENNA: DELTA H/E/N
     1     1                                                WAVELENGTH FACT L1/2
     4    C1    L1    P2    L2                              # / TYPES OF OBSERV
  *** NEW SITE FOLLOWS ! ***                                COMMENT
 92  8 14  7 19 30.0000000  0  4G17G12G 3G23                        -0.000000461
  20746822.759   109025310.460 6  20746821.361    84954907.282 8
  22256565.804   116959062.709 6  22256562.795    91137052.074 6
  22805254.787   119842425.775 5  22805257.071    93383828.411 6
  22281257.655   117088813.264 5  22281254.808    91238156.740 6
 92  8 14  7 19 45.0000000  0  4G17G12G 3G23                         0.000000069
  20742895.260   109004662.311 7  20742892.150    84938817.820 8
  22248108.048   116914633.901 6  22248108.030    91102432.224 7
  22812542.944   119880728.300 5  22812545.296    93413674.476 6
  22275785.489   117060058.835 5  22275783.992    91215750.665 6
 92  8 14  7 19 60.0000000  0  4G17G12G 3G23                        -0.000000132
  20739130.922   108984875.581 7  20739127.102    84923399.576 8
  22239812.974   116871021.995 6  22239808.961    91068448.924 6
  22819987.770   119919840.121 5  22819987.534    93444151.196 6
  22270454.572   117032039.675 5  22270452.608    91193917.539 6
 92  8 14  7 20 15.0000000  0  4G17G12G 3G23                        -0.000000098
  20735408.936   108965323.416 7  20735406.443    84908164.100 7
  22231545.872   116827601.079 6  22231546.245    91034614.485 6
  22827467.087   119959134.198 5  22827465.177    93474769.893 6
  22265139.110   117004129.737 5  22265141.282    91172169.547 6
 92  8 14  7 20 30.0000000  0  5G17G12G26G 3G23                     -0.000000044
  20731732.367   108945999.911 7  20731729.298    84893106.809 8
  22223321.574   116784367.103 6  22223319.096    91000925.686 6
  22016458.427   115697309.92816  22016456.153    90153869.51416
  22834978.317   119998605.981 6  22834977.372    93505527.077 6
  22259847.635   116976326.847 5  22259851.051    91150504.934 6
 92  8 14  7 20 45.0000000  0  5G17G12G26G 3G23                     -0.000000113
  20728125.021   108927045.183 7  20728122.575    84878336.878 8
  22215157.618   116741464.222 6  22215154.708    90967494.880 6
  22023176.282   115732595.495 6  22023171.250    90181364.712 6
  22842548.868   120038398.495 6  22842549.382    93536534.192 6
  22254608.212   116948774.492 5  22254607.526    91129035.575 6
 92  8 14  7 21  0.0000000  0  5G17G12G26G 3G23                      0.000000078
  20724437.769   108907678.541 7  20724437.460    84863245.949 8
  22206907.682   116698113.518 6  22206905.335    90933715.077 6
  22029791.869   115767375.635 6  22029788.952    90208466.096 6
  22850033.975   120077731.995 6  22850034.042    93567183.621 6
  22249274.322   116920695.712 5  22249263.817    91107155.981 6
 92  8 14  7 21 15.0000000  0  5G17G12G26G 3G23                     -0.000000037
  20720879.130   108888966.767 7  20720876.480    84848665.331 7
  22198776.966   116655380.317 6  22198773.729    90900416.510 6
  22036518.678   115802714.255 6  22036514.632    90236002.633 6
  22857637.164   120117671.025 6  22857633.937    93598304.921 6
  22244027.469   116893158.313 5  22244023.869    91085698.270 6
 92  8 14  7 21 30.0000000  0  5G17G12G26G 3G23                     -0.000000091
  20717326.160   108870287.787 7  20717322.230    84834110.272 7
  22190641.822   116612641.847 6  22190641.606    90867113.827 6
  22043228.564   115837986.943 6  22043226.307    90263487.820 6
  22865231.603   120157592.070 6  22865230.164    93629412.204 6
  22238773.404   116865545.018 6  22238769.232    91064181.410 6
 92  8 14  7 21 45.0000000  0  5G17G12G26G 3G23                     -0.000000093
  20713774.298   108851632.624 7  20713771.536    84819573.774 8
  22182506.189   116569891.803 6  22182506.058    90833802.118 6
  22049930.541   115873183.07216  22049923.638    90290913.27016
  22872822.385   120197487.901 6  22872822.812    93660499.824 6
  22233501.904   116837852.098 5  22233499.200    91042602.511 6
 92  8 14  7 21 60.0000000  0  5G17G12G26G 3G23                     -0.000000035
  20710227.425   108832997.680 7  20710225.906    84805053.013 8
  22174367.241   116527126.346 7  22174368.063    90800478.388 6
  22056606.425   115908298.079 6  22056605.800    90318275.606 6
  22880410.144   120237353.842 6  22880410.013    93691564.146 6
  22228216.896   116810077.191 6  22228213.321    91020959.717 6
 92  8 14  7 22 15.0000000  0  5G17G12G26G 3G23                     -0.000000013
  20706714.905   108814531.262 7  20706711.619    84790663.594 8
  22166256.757   116484493.461 7  22166255.059    90767257.993 7
  22063304.458   115943479.481 6  22063300.593    90345689.665 6
  22888018.861   120277336.922 6  22888018.278    93722719.718 6
  22222946.661   116782364.918 6  22222940.583    90999365.735 6
 92  8 14  7 22 30.0000000  0  5G17G12G26G 3G23                     -0.000000028
  20703230.083   108796232.402 7  20703229.215    84776404.731 7
  22158169.615   116441991.243 6  22158167.645    90734139.382 6
  22070005.724   115978722.869 6  22070006.927    90373151.981 6
  22895646.914   120317434.608 6  22895648.607    93753964.640 6
  22217676.492   116754712.993 5  22217680.063    90977818.787 6
 92  8 14  7 22 45.0000000  0  5G17G12G26G 3G23                     -0.000000074
  20699783.766   108778098.881 7  20699779.250    84762274.703 8
  22150105.139   116399617.140 6  22150103.638    90701120.625 6
  22076727.203   116014025.480 6  22076725.031    90400660.495 6
  22903299.524   120357643.348 6  22903299.336    93785296.096 6
  22212429.451   116727118.608 6  22212427.559    90956316.661 6
 92  8 14  7 22 60.0000000  0  5G17G12G26G 3G23                      0.000000051
  20696304.206   108759821.668 7  20696300.476    84748032.704 8
  22142005.853   116357059.104 6  22142005.852    90667958.544 6
  22083396.276   116049072.699 6  22083394.284    90427969.972 6
  22910911.035   120397650.104 6  22910911.382    93816470.151 6
  22207131.120   116699267.689 6  22207128.927    90934614.649 6
 92  8 14  7 23 15.0000000  0  5G17G12G26G 3G23                     -0.000000038
  20692911.007   108742018.290 7  20692913.829    84734159.950 8
  22133989.506   116314931.913 6  22133987.125    90635132.197 6
  22090134.979   116084474.822 6  22090131.804    90455555.987 6
  22918604.833   120438069.290 6  22918603.372    93847965.565 6
  22201899.026   116671773.851 5  22201896.533    90913190.868 6
 92  8 14  7 23 30.0000000  0  5G17G12G26G 3G23                      0.000000051
  20689503.699   108724074.767 7  20689499.286    84720177.967 7
  22125937.697   116272622.373 6  22125936.379    90602163.736 6
  22096819.353   116119618.443 6  22096818.664    90482940.563 6
  22926258.283   120478286.438 6  22926257.162    93879303.558 6
  22196616.323   116644022.060 6  22196616.031    90891566.097 6
 92  8 14  7 23 45.0000000  0  5G17G12G26G 3G23                     -0.000000081
  20686180.618   108706610.859 7  20686175.037    84706569.723 8
  22117969.245   116230754.874 6  22117969.260    90569539.718 6
  22103577.538   116155127.943 6  22103575.901    90510610.318 6
  22933989.683   120518925.219 6  22933990.705    93910970.123 6
  22191406.347   116616633.453 6  22191403.174    90870224.319 6
 92  8 14  7 24  0.0000000  0  5G17G12G26G 3G23                     -0.000000036
  20682828.169   108688998.620 7  20682823.782    84692845.893 8
  22109967.076   116188701.193 6  22109967.447    90536770.633 6
  22110283.359   116190376.270 6  22110282.691    90538076.504 6
  22941685.603   120559356.554 6  22941684.515    93942474.989 6
  22186143.677   116588975.934 6  22186140.125    90848673.014 6
 92  8 14  7 24 15.0000000  0  5G17G12G26G 3G23                     -0.000000012
  20679506.048   108671547.754 7  20679502.989    84679247.803 8
  22101989.913   116146770.920 6  22101988.382    90504097.695 7
  22117003.629   116225674.528 6  22117000.937    90565581.597 6
  22949398.708   120599889.191 6  22949397.119    93974058.810 6
  22180889.548   116561358.298 6  22180884.416    90827152.763 6
 92  8 14  7 24 30.0000000  0  5G17G12G26G 3G23                     -0.000000009
  20676219.348   108654263.028 7  20676213.813    84665779.175 8
  22094034.953   116104969.320 6  22094034.295    90471525.038 7
  22123730.038   116261025.047 6  22123726.689    90593127.427 6
  22957130.597   120640527.542 6  22957130.332    94005725.027 6
  22175643.654   116533784.938 6  22175637.622    90805667.019 6
 92  8 14  7 24 45.0000000  0  5G17G12G26G 3G23                     -0.000000024
  20672959.439   108637143.091 7  20672955.506    84652438.953 8
  22086103.458   116063293.036 6  22086103.321    90439050.025 7
  22130470.141   116296424.527 6  22130463.225    90620711.414 6
  22964886.782   120681267.571 6  22964882.888    94037470.447 6
  22170401.672   116506253.137 6  22170397.520    90784213.680 6
 92  8 14  7 25  0.0000000  0  5G17G12G26G 3G23                     -0.000000057
  20669735.739   108620194.434 7  20669731.256    84639232.188 8
  22078197.286   116021746.821 6  22078196.858    90406676.378 7
  22137214.813   116331878.020 6  22137209.791    90648337.474 6
  22972655.243   120722113.110 6  22972655.284    94069298.111 6
  22165170.542   116478764.367 6  22165166.587    90762793.881 6
 92  8 14  7 25 15.0000000  0  5G17G12G26G 3G23                     -0.000000107
  20666539.614   108603416.686 7  20666537.581    84626158.625 8
  22070316.920   115980331.219 6  22070316.714    90374404.506 7
  22143971.878   116367383.634 6  22143966.522    90676004.161 6
  22980449.780   120763063.676 6  22980448.153    94101207.604 6
  22159948.699   116451319.396 6  22159943.976    90741408.164 6
 92  8 14  7 25 30.0000000  0  5G17G12G26G 3G23                      0.000000113
  20663294.997   108586351.107 7  20663290.106    84612860.758 8
  22062372.560   115938589.325 6  22062373.254    90341878.367 7
  22150651.370   116402485.599 6  22150646.185    90703356.263 7
  22988175.924   120803661.837 6  22988173.711    94132842.476 6
  22154646.723   116423459.321 6  22154643.358    90719699.017 6
 92  8 14  7 25 45.0000000  0  5G17G12G26G 3G23                      0.000000016
  20660168.583   108569921.691 7  20660163.691    84600058.609 8
  22054543.398   115897444.798 7  22054542.985    90309817.725 7
  22157429.437   116438110.583 6  22157425.879    90731115.977 7
  22996011.122   120844830.082 6  22996007.025    94164921.586 6
  22149441.776   116396107.142 6  22149438.171    90698385.649 6
 92  8 14  7 25 60.0000000  0  5G17G12G26G 3G23                     -0.000000009
  20657046.665   108553516.903 7  20657041.958    84587275.633 8
  22046712.208   115856285.618 7  22046710.902    90277745.653 7
  22164194.014   116473645.674 6  22164187.237    90758805.608 7
  23003838.421   120885955.815 6  23003833.472    94196967.578 6
  22144212.596   116368649.617 6  22144213.176    90676990.166 6
 92  8 14  7 26 15.0000000  0  5G17G12G26G 3G23                     -0.000000062
  20653959.765   108537296.131 7  20653955.245    84574636.061 8
  22038906.602   115815270.882 7  22038905.566    90245786.107 7
  22170964.380   116509247.188 6  22170962.461    90786547.016 7
  23011685.473   120927197.350 6  23011682.197    94229103.794 6
  22139001.346   116341247.312 6  22138998.933    90655637.711 6
 92  8 14  7 26 30.0000000  0  5G17G12G26G 3G23                      0.000000050
  20650850.202   108520954.266 7  20650845.485    84561902.114 8
  22031071.635   115774097.852 7  22031070.353    90213703.218 7
  22177695.263   116544610.216 6  22177692.056    90814102.582 7
  23019496.950   120968250.940 6  23019494.424    94261093.557 6
  22133740.244   116313596.035 6  22133735.603    90634091.258 6
 92  8 14  7 26 45.0000000  0  5G17G12G26G 3G23                      0.000000031
  20647804.904   108504955.117 7  20647800.949    84549435.247 8
  22023293.281   115733230.328 7  22023294.012    90181858.403 7
  22184467.263   116580198.320 6  22184465.946    90841833.529 7
  23027358.234   121009579.266 6  23027359.423    94293297.415 6
  22128518.214   116286160.083 6  22128516.425    90612712.595 7
 92  8 14  7 27  0.0000000  0  5G17G12G26G 3G23                     -0.000000026
  20644796.878   108489147.836 7  20644792.920    84537117.872 8
  22015547.276   115692518.793 7  22015547.355    90150135.137 7
  22191247.999   116615863.327 6  22191252.265    90869624.372 7
  23035250.323   121051032.476 6  23035247.698    94325598.581 6
  22123311.675   116258789.536 6  22123306.763    90591384.900 6
 92  8 14  7 27 15.0000000  0  5G17G12G26G 3G23                     -0.000000128
  20641825.866   108473533.060 7  20641821.765    84524950.488 8
  22007830.704   115651967.935 7  22007831.519    90118537.081 7
  22198054.265   116651610.493 6  22198055.453    90897479.288 7
  23043163.234   121092614.101 6  23043159.914    94357999.785 6
  22118115.734   116231489.681 6  22118111.523    90570112.259 6
 92  8 14  7 27 30.0000000  0  5G17G12G26G 3G23                     -0.000000088
  20638831.418   108457806.132 7  20638829.271    84512695.725 8
  22000087.292   115611276.031 7  22000087.621    90086829.114 7
  22204818.368   116687140.097 6  22204816.253    90925164.634 7
  23051040.215   121134021.918 6  23051040.283    94390265.576 6
  22112876.998   116203961.938 6  22112874.637    90548662.088 7
 92  8 14  7 27 45.0000000  0  5G17G12G26G 3G23                      0.000000088
  20635821.408   108441973.423 7  20635815.676    84500358.557 8
  21992317.941   115570449.818 7  21992318.165    90055016.486 7
  22211539.752   116722460.206 6  22211535.971    90952686.759 7
  23058891.088   121175261.536 6  23058888.392    94422400.273 6
  22107595.955   116176214.870 6  22107593.075    90527040.974 6
 92  8 14  7 28  0.0000000  0  5G17G12G26G 3G23                      0.000000004
  20632906.031   108426655.013 7  20632901.164    84488422.119 8
  21984643.959   115530110.769 7  21984642.146    90023583.472 7
  22218335.495   116758189.081 6  22218336.401    90980527.381 7
  23066821.192   121216953.512 6  23066821.370    94454887.491 6
  22102391.342   116148871.444 6  22102390.281    90505734.404 7
 92  8 14  7 28 15.0000000  0  5G17G12G26G 3G23                     -0.000000042
  20630000.935   108411386.631 7  20629996.170    84476524.655 8
  21976970.496   115489795.446 7  21976969.907    89992168.937 7
  22225127.557   116793859.603 6  22225124.027    91008322.576 6
  23074754.973   121258633.813 6  23074753.101    94487365.603 6
  22097178.624   116121468.424 6  22097177.126    90484381.406 7
 92  8 14  7 28 30.0000000  0  5G17G12G26G 3G23                     -0.000000055
  20627105.366   108396178.315 7  20627101.880    84464674.020 8
  21969305.212   115449511.107 7  21969304.298    89960778.549 7
  22231904.136   116829480.770 6  22231901.767    91036079.287 6
  23082686.001   121300308.645 6  23082683.547    94519839.453 6
  22091953.997   116094012.823 6  22091951.520    90462987.423 7
 92  8 14  7 28 45.0000000  0  5G17G12G26G 3G23                      0.000000062
  20624194.199   108380887.024 7  20624192.042    84452758.722 8
  21961618.227   115409111.731 7  21961616.798    89929298.522 7
  22238644.657   116864907.443 6  22238642.990    91063684.468 6
  23090585.425   121341831.396 6  23090585.295    94552194.792 6
  22086691.497   116066358.201 6  22086689.749    90441438.349 7
 92  8 14  7 28 60.0000000  0  5G17G12G26G 3G23                      0.000000012
  20621359.317   108365983.619 7  20621355.771    84441145.665 8
  21953998.817   115369066.458 7  21953996.442    89898094.438 7
  22245441.326   116900607.180 6  22245436.398    91091502.340 6
  23098548.810   121383670.271 6  23098546.956    94584796.462 6
  22081480.186   116038975.575 6  22081478.277    90420101.243 7
 92  8 14  7 29 15.0000000  0  5G17G12G26G 3G23                     -0.000000109
  20618568.439   108351318.460 7  20618565.080    84429718.251 8
  21946416.159   115329225.322 7  21946414.922    89867049.381 7
  22252262.401   116936430.173 6  22252253.777    91119416.365 6
  23106541.550   121425674.400 6  23106539.822    94617526.910 6
  22076292.527   116011714.244 6  22076290.862    90398858.645 7
 92  8 14  7 29 30.0000000  0  5G17G12G26G 3G23                      0.000000086
  20615705.834   108336285.369 7  20615704.619    84418004.141 8
  21938759.397   115288980.768 7  21938756.879    89835689.977 7
  22258984.378   116971767.398 6  22258977.972    91146951.823 6
  23114452.431   121467235.364 6  23114448.597    94649912.024 6
  22071012.518   115983969.610 6  22071010.257    90377239.451 7
 92  8 14  7 29 45.0000000  0  5G17G12G26G 3G23                     -0.000000084
  20612984.289   108321969.551 7  20612980.897    84406848.954 8
  21931230.289   115249415.040 7  21931227.774    89804859.548 7
  22265822.029   117007696.497 6  22265815.042    91174948.480 6
  23122480.229   121509434.724 6  23122478.857    94682794.596 6
  22065847.388   115956821.668 6  22065844.907    90356085.207 7
 92  8 14  7 30  0.0000000  0  5G17G12G26G 3G23                      0.000000066
  20610193.131   108307301.919 7  20610191.197    84395419.601 8
  21923624.711   115209457.456 7  21923624.101    89773723.779 7
  22272563.671   117043144.068 6  22272560.724    91202569.920 7
  23130427.103   121551200.832 6  23130427.403    94715339.565 6
  22060589.591   115929195.760 6  22060586.897    90334558.535 7
 92  8 14  7 30 15.0000000  0  5G17G12G26G 3G23                     -0.000000053
  20607510.371   108293211.919 7  20607507.520    84384440.390 8
  21916122.744   115170036.351 7  21916122.025    89743006.033 7
  22279397.811   117079038.715 6  22279391.236    91230539.723 7
  23138472.023   121593461.170 6  23138469.511    94748269.653 6
  22055421.509   115902019.305 6  22055416.119    90313382.062 7
 92  8 14  7 30 30.0000000  0  5G17G12G26G 3G23                     -0.000000058
  20604824.140   108279090.682 7  20604821.310    84373436.813 8
  21908607.908   115130542.623 7  21908606.617    89712231.694 7
  22286194.300   117114775.507 6  22286191.709    91258386.523 7
  23146492.103   121635605.976 6  23146488.655    94781109.707 6
  22050218.180   115874682.628 7  22050213.635    90292080.760 7
 92  8 14  7 30 45.0000000  0  5G17G12G26G 3G23                     -0.000000054
  20602161.958   108265099.820 7  20602158.690    84362534.829 8
  21901109.175   115091139.515 7  21901108.211    89681527.972 7
  22292994.392   117150518.228 6  22292992.820    91286237.939 7
  23154523.001   121677797.628 6  23154517.689    94813986.257 6
  22045018.113   115847349.090 6  22045012.723    90270781.896 7
 92  8 14  7 31  0.0000000  0  5G17G12G26G 3G23                      0.000000053
  20599497.997   108251087.611 7  20599491.765    84351616.216 8
  21893600.690   115051679.161 7  21893599.404    89650779.663 7
  22299767.892   117186116.215 6  22299768.838    91313976.597 7
  23162530.670   121719887.211 6  23162527.546    94846783.284 6
  22039787.992   115819872.617 6  22039784.607    90249371.635 7
 92  8 14  7 31 15.0000000  0  5G17G12G26G 3G23                      0.000000059
  20596882.875   108237364.052 7  20596880.011    84340922.520 8
  21886141.202   115012474.286 7  21886138.963    89620230.407 7
  22306578.987   117221883.761 6  22306573.455    91341847.366 7
  23170576.229   121762186.912 6  23170576.654    94879744.036 6
  22034593.265   115792564.145 6  22034588.467    90228092.308 7
 92  8 14  7 31 30.0000000  0  5G17G12G26G 3G23                     -0.000000040
  20594328.851   108223936.564 7  20594325.085    84330459.524 8
  21878730.367   114973532.088 7  21878728.265    89589885.836 7
  22313421.240   117257829.044 6  22313414.337    91369856.635 7
  23178670.165   121804702.830 6  23178667.394    94912873.264 6
  22029428.239   115765429.746 6  22029424.961    90206948.616 7
                            3  7
2000E-5000N                                                 MARKER NAME
2000E-5000N                                                 MARKER NUMBER
  5245798.0260  2512800.3394 -2610934.2509                  APPROX POSITION XYZ
        1.9910        0.0000        0.0000                  ANTENNA: DELTA H/E/N
     1     1                                                WAVELENGTH FACT L1/2
     4    C1    L1    P2    L2                              # / TYPES OF OBSERV
  *** NEW SITE FOLLOWS ! ***                                COMMENT
 92  8 14  8  9 30.0000000  0  5G17G12G23G26G 3                     -1.000000000
  -5370305.887   -28221154.912 7  -5370308.017   -21990389.590 8
  -4874349.276   -25614883.331 7  -4874350.303   -19959528.660 7
  -4596069.959   -24152533.652 7  -4596071.900   -18820035.119 7
  -2527938.026   -13284417.991 5  -2527944.701   -10351373.961 6
  -1405013.826    -7383421.487 5  -1405014.513    -5753195.560 5
 92  8 14  8  9 45.0000000  0  4G17G12G23G21                        -1.000000000
  20514814.699   107806069.87417  20514812.426    84004850.47718
  21005560.437   110384959.13317  21005559.710    86014374.57018
  21283022.924   111843070.34717  21283030.581    87150565.40017
  23864919.486   125411014.35415  23864921.694    97722989.90015
 92  8 14  8 10  0.0000000  0  5G17G12G23G26G21                     -1.000000000
  20515995.918   107812277.223 7  20515993.396    84009687.352 8
  21001499.528   110363620.913 7  21001499.427    85997747.388 7
  21278147.942   111817355.139 7  21278138.357    87130527.561 7
  23368917.749   122804531.63415  23368916.648    95691964.15516
  23857543.381   125372242.661 5  23857543.689    97692778.204 5
 92  8 14  8 10 15.0000000  0  5G17G12G23G26G21                     -1.000000000
  20517010.736   107817610.125 7  20517008.209    84013842.843 8
  20997272.331   110341406.842 7  20997271.740    85980437.718 8
  21273060.580   111790652.872 7  21273056.357    87109720.621 7
  23375183.494   122837460.348 5  23375183.488    95717622.815 6
  23849967.027   125332432.652 5  23849967.852    97661757.419 5
 92  8 14  8 10 30.0000000  0  5G17G12G23G26G21                      0.000000156
  20514956.758   107806811.399 7  20514953.031    84005428.230 8
  20989974.063   110303060.184 7  20989974.859    85950557.211 7
  21264889.531   111747707.721 7  21264884.170    87076256.884 7
  23378351.962   122854102.759 5  23378350.663    95730590.867 5
  23839292.022   125276328.120 5  23839291.023    97618039.590 5
 92  8 14  8 10 45.0000000  0  5G17G12G23G26G21                      0.000000058
  20516568.563   107815282.490 8  20516565.022    84012029.064 8
  20986345.242   110283986.602 8  20986344.792    85935694.693 7
  21260362.696   111723925.040 7  21260357.983    87057724.901 7
  23385156.425   122889865.449 6  23385156.310    95758457.854 6
  23832246.807   125239329.266 6  23832250.374    97589209.309 5
 92  8 14  8 10 60.0000000  0  5G17G12G23G26G21                     -0.000000038
  20518210.515   107823909.009 7  20518206.839    84018751.030 8
  20982743.563   110265073.653 7  20982745.782    85920957.345 7
  21255849.471   111700194.883 7  21255842.779    87039233.897 7
  23391965.047   122925635.002 5  23391962.287    95786330.191 6
  23825208.297   125202320.646 5  23825208.356    97560371.420 5
